Longitude,Latitude,Title
151.003945,-33.953941,HEV-ERR-RU1-MVB
151.003867,-33.953953,53D-BZC-GDH-T68
151.003553,-33.95399,RQ7-A5S-XBM-8S7
151.004051,-33.953923,XK6-FF6-886-NRS
151.004451,-33.953889,SJ2-RAC-EO1-NM7
151.004877,-33.95394,USJ-UWN-BSB-5ZD
151.004939,-33.953941,XO4-NON-Y8M-6R2
151.005094,-33.954063,M9Y-R4D-DQA-9FO
150.996831,-33.961707,RJR-CZ4-43K-9KX
150.9969,-33.962075,SA6-8AO-AA4-RTR
150.996876,-33.962172,O9X-DAO-OJF-V7S
150.996706,-33.962396,PTS-GX6-NT4-9SK
150.996864,-33.962317,5O5-3ZJ-GDP-18R
150.996659,-33.962651,4M1-WAH-4RT-1XQ
150.996825,-33.962547,23H-X6D-5VS-HC5
150.996626,-33.962877,9TR-4XY-51N-7Y1
150.996799,-33.962689,CK7-NGE-GH7-NG9
150.996773,-33.962823,FKV-XO5-W2G-CPV
150.99677,-33.962882,FPX-XGM-8K5-VCK
150.996566,-33.963121,YUP-CTX-JY4-Q3W
150.996758,-33.962935,V6U-AQE-86N-MGN
150.996762,-33.962908,O35-4SW-KD8-EOX
150.996554,-33.963245,EN2-3AT-73C-YOG
150.996744,-33.962987,26W-SP8-4QT-BAD
150.996706,-33.963154,D9S-MZV-SKX-39K
150.996597,-33.963478,5VV-CDS-PRH-73X
150.996668,-33.96329,RHY-QBJ-K3S-CWH
150.996681,-33.963415,SPK-DU1-SEK-GRM
150.997983,-33.961436,769-UJ3-G7A-8N1
150.997744,-33.961648,UOJ-FVV-CZY-2ME
150.997571,-33.961633,3GK-O7H-439-2OM
150.997852,-33.961552,BUC-YE3-KGF-JAS
150.997791,-33.961545,U4P-KUG-RQ5-761
150.997232,-33.961584,7HW-MF5-3R7-G6G
150.99773,-33.961542,WX9-MMW-MKK-N1P
150.99679,-33.961571,JEM-T92-KOX-DE3
150.997035,-33.961347,QC7-E7N-W3P-HSP
150.996909,-33.961247,JVE-BOB-2DN-DUJ
150.996477,-33.9615,XDA-UZQ-N8E-N22
150.996934,-33.961166,CZD-VPG-3M9-55U
150.996178,-33.96147,E1O-OF7-X3O-51V
150.996044,-33.961443,Q32-VRR-6GA-8YH
150.996656,-33.961393,DEH-2V2-C95-JOM
150.995698,-33.96139,AB3-W1N-XNE-DD9
150.996486,-33.96137,PXS-57P-UHD-9JB
150.996342,-33.961353,YPX-F8Z-9K5-T9N
150.995279,-33.96133,1KW-1XU-V8R-AXQ
150.996221,-33.961339,BAC-19U-DRO-49X
150.99545,-33.961245,96U-YVJ-HNT-ZAC
150.995653,-33.961265,NGC-D8A-WWN-UEA
150.995712,-33.961277,NBR-U8S-7T3-UHK
150.995969,-33.961178,7VQ-X33-3BF-BKG
150.995829,-33.961125,OPK-XWK-1AN-7CU
150.995742,-33.961561,AG9-F4Q-8N3-12H
150.995661,-33.961948,A6J-TQC-TF4-RBO
150.995656,-33.962009,6WW-GPR-O1Z-9FS
150.996013,-33.960884,COH-ACD-FXF-N5U
150.996044,-33.960755,565-782-YNH-16X
150.995803,-33.96208,9H8-AR3-9MR-38O
150.996041,-33.960691,XEG-H9B-FON-O3A
150.995882,-33.96171,JQA-M2E-VNK-E7D
150.996054,-33.960547,PS9-8TE-EF4-3QE
150.996072,-33.960431,2J5-QED-A5Q-EFJ
151.004162,-33.946718,3TO-NHH-27F-6DK
151.004415,-33.94675,YUK-MCA-Z21-3UK
151.004566,-33.946772,219-MCK-CWH-DPA
151.004763,-33.946813,EGC-WQ4-DUM-SR2
151.005073,-33.946849,QS3-87S-O7H-DA7
151.005201,-33.947096,33B-KCA-V11-2PT
151.003977,-33.948342,KN8-9VQ-QSU-16Z
151.005164,-33.94722,BSQ-ST4-ADA-TTX
151.004216,-33.948372,HRH-9SS-QW1-O2Z
151.005148,-33.947336,63Z-M5P-24U-ZTW
151.004258,-33.948378,234-2SG-SKR-BO9
151.005098,-33.947517,HPJ-CV6-VYR-6RO
151.004368,-33.948395,KTF-GY5-BQC-VW1
151.005077,-33.947673,73X-BMO-J7S-K4U
151.004364,-33.969929,2E5-5JJ-VYU-QZG
151.004375,-33.969822,H3K-9BZ-OA2-YX8
151.004402,-33.969682,DN2-2SO-JN8-HEV
151.005045,-33.94784,E82-U4C-785-YP3
151.004563,-33.948515,9QX-W77-T9J-5KG
151.004974,-33.948105,BSN-RMK-OAZ-165
151.004586,-33.969257,TYO-5XC-BMM-WOJ
151.0042,-33.948463,JZ7-5EF-PQB-QUW
151.004623,-33.96913,JSW-454-VGS-RF5
151.003972,-33.948422,UYU-P3A-XRF-BU8
151.004834,-33.948714,B2J-YEH-2M1-K3Y
151.003546,-33.948372,GBU-UBH-D4B-5CP
151.004641,-33.969009,BAS-QEV-M45-3GY
151.004663,-33.968851,TNO-FVX-AGY-444
151.003556,-33.948273,5SX-QGG-U5K-QOK
151.004634,-33.968694,MSP-9EO-RAU-YUS
151.00373,-33.948306,88U-RD6-CRP-GQE
151.004655,-33.968418,33P-3TW-6BB-9KG
151.004692,-33.968294,JUH-KK5-BDQ-7SN
151.004899,-33.967762,MUX-Y69-3CU-2UQ
151.00493,-33.967597,3N7-7CH-R7D-C9W
151.003269,-33.948448,GFM-VF7-C6Z-OFD
151.002789,-33.949364,OFY-OAS-FEN-YK9
151.004961,-33.967501,1R6-9M9-GOZ-3S5
151.002721,-33.949368,VFE-EUC-Z66-W9Y
151.003267,-33.94856,96K-5WQ-67M-MO8
151.003227,-33.948669,KSP-DKO-P9A-631
151.002647,-33.949372,NHH-F3B-YMW-ZRK
151.004948,-33.967414,ZYG-44A-YP1-WNX
151.004991,-33.967299,UX8-EA8-EVN-BEU
151.003185,-33.948765,XUG-TWZ-Q3P-8KJ
151.002782,-33.949387,1NA-21B-P8X-D43
151.003177,-33.948947,AF9-BWW-RUT-QD4
151.00224,-33.949436,EJ9-ZR9-PQM-QB9
151.004175,-33.967124,RKB-H1W-XHE-TGA
151.001891,-33.949475,M3J-78U-4ZN-WPC
151.003117,-33.949144,P2C-PBB-383-UTF
151.00508,-33.966795,UQ9-XNX-1VG-96R
151.00513,-33.966618,B31-MD3-JM6-H38
151.002912,-33.949293,KMY-Q8A-9FE-EER
151.00513,-33.966477,1ER-2JQ-19Z-ZRC
151.002941,-33.949236,6HP-8OS-9C7-5PD
151.005108,-33.966369,PT4-WRK-DDK-PMK
151.001209,-33.949391,G8U-DRW-1UE-F41
151.002978,-33.949062,X5T-SRJ-M78-FB3
151.001093,-33.949413,663-XRX-QHW-26R
151.005172,-33.966319,7CN-4EB-M69-DA7
151.003018,-33.948924,FES-P5W-V48-3AR
151.005315,-33.96637,711-1M1-ZJU-GYP
151.001083,-33.949316,65K-D3A-DV4-QJ4
151.003057,-33.948767,YYK-2KX-RYO-8V1
151.005274,-33.966488,QMJ-GE2-O8H-9Z7
151.001091,-33.949208,1OK-CSG-AOO-ZYY
151.005243,-33.966597,EGE-DNM-E22-TDQ
151.00307,-33.948594,PBX-QCJ-4QS-5MH
151.001229,-33.949183,7HK-XAR-3R5-2YR
151.005223,-33.966703,Q2P-K83-246-YF6
151.003147,-33.948435,RJT-F6J-TSY-VER
151.003175,-33.948309,SUC-66R-D25-PAJ
151.005198,-33.966855,EWN-UA4-8XR-5QW
151.001135,-33.949061,CPB-AKZ-P9T-YEZ
151.005162,-33.966979,1QM-H78-MAZ-VNP
151.001164,-33.948903,G6W-R89-XMY-94B
151.005135,-33.967142,UU2-H85-UDM-938
151.001299,-33.948901,AYA-GNK-KRZ-VG2
151.005103,-33.967291,1J7-184-R8Z-57R
151.001399,-33.94845,N7S-8BY-8U5-AMW
151.00506,-33.967486,ZVE-MO5-GWH-ENU
151.005058,-33.967565,AC8-8RW-13B-1A7
151.005019,-33.967682,TTS-F39-9J8-QGF
151.005015,-33.967896,2KD-XFO-7UJ-JS6
151.004975,-33.96798,XUU-2XF-366-82F
151.004901,-33.968118,JPM-27M-X7Z-FPK
151.004795,-33.968326,DZE-JJT-5QU-ZON
151.004764,-33.968828,5TF-FZD-DRD-J7N
151.004773,-33.968947,GUO-CYQ-3W2-NY2
151.001557,-33.948149,8GX-RY5-N5C-V3R
151.003199,-33.94811,88E-F8C-KHA-6VC
151.001588,-33.947998,37M-SE3-1JN-J6H
151.0047,-33.969256,PM9-CRY-YVF-RBA
151.003251,-33.94796,WUO-661-JNJ-FJ3
151.004652,-33.969392,WKU-ASC-MA6-A8A
151.001471,-33.947967,27R-2FM-EER-Y19
151.004612,-33.969502,AJQ-UDW-9U1-O3G
151.001504,-33.947828,EAN-QJH-8M1-692
151.003312,-33.947618,36C-RF3-QP1-VRV
151.004509,-33.969748,DFN-QTY-51B-U11
151.001546,-33.947664,O3W-RP6-82A-E8Q
151.001562,-33.947562,NMU-NWT-A8M-8PG
151.00446,-33.969901,PQF-K6F-BXQ-XTD
151.003361,-33.947421,DSM-VRM-F4N-U9F
151.004452,-33.969981,ZC7-UQ4-TSP-SNW
151.00159,-33.947455,J7F-GBR-O1A-XH4
151.001592,-33.947426,TH4-AVC-GG8-GZV
151.001618,-33.947294,JKW-E4K-ZTF-RJK
151.001689,-33.946625,EKS-SCO-79W-CER
151.003532,-33.947411,KGN-GHJ-PRC-CEB
151.001803,-33.946651,DA7-PSV-84V-WC1
151.003507,-33.947445,XGC-BUX-33F-622
151.001795,-33.946902,EVP-8UP-O2P-1XH
151.003548,-33.947504,E1U-DFF-ONK-76O
151.0018,-33.947038,G9J-RU8-V9Q-M1Q
151.00364,-33.947516,FT3-63K-JFS-M4Q
151.001781,-33.947154,RN3-6ER-ZKE-GY1
151.00371,-33.94753,2SY-27M-CXX-6UQ
151.003754,-33.947533,FRU-RET-HDG-DGG
151.001549,-33.948733,6X6-PR5-XZY-T5G
151.001492,-33.948823,3SX-Z2O-DXY-8NF
151.003892,-33.947529,1MN-V63-8WD-Y7Z
151.003988,-33.947567,CUO-567-3F1-1KB
151.003038,-33.946542,JP5-C27-HHR-5KF
151.004265,-33.947353,HUG-3GN-TTW-Y7N
151.004382,-33.947553,63R-62Q-H5P-EXH
151.004319,-33.947642,65D-2YT-AZS-EV7
151.004173,-33.947677,7U4-TW2-PFQ-8KC
151.004018,-33.947669,JF1-JS5-2XW-Q16
151.003851,-33.947651,UVP-9YJ-S4R-H2B
151.003623,-33.947604,QSO-KMF-FDC-CE7
151.003409,-33.947846,KGR-NPM-S4V-3TE
151.000597,-33.946146,YSK-QRV-KA6-H9F
151.001634,-33.946317,2UP-4NA-Q4X-DZ3
151.001315,-33.94627,ADY-WHM-XAD-K35
151.000189,-33.946101,8PF-28F-A59-BTM
150.999948,-33.946061,5KJ-713-JOR-BH1
150.999708,-33.946478,1DD-TZJ-OAP-VNR
150.999689,-33.946619,R1R-25G-ZPO-8YJ
150.999528,-33.947353,2TK-4MZ-JFV-936
150.999491,-33.947514,SMS-1EK-QOM-WDU
150.999467,-33.947623,4H2-N98-E8C-BOR
150.999349,-33.948098,9FD-HRT-K7R-JZ1
150.999299,-33.948394,REV-R1O-R6T-ZAB
150.999265,-33.948564,MK8-DOM-VZV-J74
150.999223,-33.948701,9P6-QQA-KN5-Z9Z
150.999798,-33.948774,8QP-CFZ-BDP-2E2
151.000007,-33.948748,8A6-HBF-WEY-E52
151.000246,-33.948465,OA6-C2W-ATN-3QF
151.000267,-33.948347,TH8-8EE-HTN-8FH
151.000379,-33.947783,K8A-KMM-FH2-UN1
151.000409,-33.947651,X99-XC7-CCG-CWD
151.000438,-33.947511,AB6-GW4-RTZ-VVR
151.000509,-33.947259,FRW-4SZ-S32-B8Q
151.00058,-33.946932,HBU-GBB-JR9-T1Z
151.000594,-33.946824,699-93R-WC8-Z9V
151.000708,-33.946303,XVZ-2C6-JBW-VGQ
151.000851,-33.946395,1ZU-72V-7DW-UJC
151.000832,-33.946453,1XE-27D-BF3-HWJ
151.000821,-33.946551,YSX-YBO-1SZ-1HG
151.000794,-33.946653,Y3C-TGV-T94-YN7
151.000747,-33.946841,1HA-XQ9-8AY-7SE
151.000717,-33.94699,8Q2-1BO-CD1-ENH
151.000678,-33.94719,G3D-XKG-UH3-762
151.000663,-33.947268,CU2-B27-JPN-HQ9
151.000641,-33.947311,52V-SVY-8NW-39R
151.000627,-33.947424,Z4D-Z7J-X4P-AQZ
151.000589,-33.947571,2X5-EE9-4BS-NQZ
151.000552,-33.947702,AD5-PY3-GUX-CPQ
151.000489,-33.94801,REB-Z4P-6AM-6X6
151.000463,-33.948166,PEO-EPD-32B-3AX
151.000431,-33.948305,G2H-1XQ-3QS-DZV
151.0028,-33.946772,9FR-ROH-5MP-N5N
151.000387,-33.948487,5BT-3D3-T6O-2YW
151.000362,-33.948619,ZXJ-N5M-F4C-P89
151.0027362,-33.94662527,CXR-RA8-W1A-7Z2
151.000326,-33.948761,CKF-DAU-TU9-U2O
151.002751,-33.946961,9AG-RU1-U8M-C5U
151.000289,-33.949608,W6V-Y15-1Y1-D7S
151.002737,-33.947082,Z2R-SBY-ZMM-B93
151.000514,-33.949592,E6F-8Y3-KZN-2YK
151.002654,-33.946954,46B-NXP-5CT-5YA
151.002641,-33.947014,EBU-MJB-6PU-FSB
151.002704,-33.947214,TC2-9RF-CO3-4WJ
151.002609,-33.947197,32S-F5M-SPA-BBV
151.002567,-33.947347,7EF-2TC-VNP-MD9
151.002601,-33.947731,6OU-9AS-XYS-OB6
151.002538,-33.947527,3R3-RV9-N8V-9MC
151.002551,-33.947896,BGJ-FDZ-UB6-8OO
151.002493,-33.947606,564-3KR-ZOJ-GXV
151.002472,-33.947713,KHW-C71-DFP-C89
151.002451,-33.947891,KJY-BGF-GSK-4D4
151.002494,-33.948192,CE6-62K-1EY-26H
151.00238,-33.948247,72M-VNN-N46-O17
151.002483,-33.94823,B54-UBJ-NSU-SZK
151.002458,-33.94832,189-536-QBZ-CF7
151.002449,-33.948359,69C-9JJ-7ZK-JET
150.999666,-33.946206,SZJ-DEF-QKO-TNH
150.999639,-33.94634,HDT-NMZ-JBB-HMF
150.999617,-33.946459,B3O-5XY-KMK-3M8
150.999564,-33.946612,5U6-1Q8-QZF-N9V
150.999556,-33.946663,VQ3-W61-VG5-PES
150.998579,-33.945944,5MB-RD6-T18-QY4
150.99951,-33.946895,XVQ-F19-2FC-52X
150.99945,-33.947176,CNM-V3B-QGY-M93
150.998581,-33.946495,R45-AN3-GWV-F3D
150.998571,-33.946661,XRX-CNE-SVN-79C
150.999414,-33.947334,9R2-MK1-GFT-7T5
150.998531,-33.94682,NCO-NPY-EN5-GOG
150.999373,-33.947491,H1M-ROM-2KO-VDS
150.998506,-33.946924,Q9Z-Y6T-U6H-QQ4
150.999356,-33.947615,MQ4-G7Z-NJ2-9R7
150.998465,-33.947105,82Q-TWB-GGD-FCJ
150.999323,-33.947738,EO3-VVX-R41-EJ8
150.998438,-33.947206,DTK-7Y9-PPK-N1K
150.999316,-33.947782,53Y-OBE-FXQ-TFY
150.998398,-33.9474,OSO-72A-PE8-8SY
150.99928,-33.947899,FBA-YZU-NKJ-TSG
150.998388,-33.947474,O3R-QB2-JZQ-EYG
150.999246,-33.94809,PN7-TM4-N3M-C1H
150.998341,-33.947679,N6A-PMJ-88W-4X9
150.998322,-33.947779,9ZS-BXA-63C-E9S
150.999181,-33.948357,Q7T-8WG-JM4-427
150.999151,-33.948538,OKQ-XB2-65P-9TY
150.998246,-33.948063,JN1-D49-H4Z-QTB
150.999107,-33.948699,47O-TPH-923-ES7
150.998231,-33.948178,WFB-48T-QFO-D5N
150.998183,-33.948407,FC1-GXB-CHW-HX6
150.998771,-33.948969,WVD-655-1YV-RVV
151.000253,-33.949089,7J5-5UG-UHX-SSS
150.998969,-33.948946,V13-7A9-QE5-9CS
150.998131,-33.948611,QT7-JYS-GZQ-GDD
150.99931,-33.948921,QDZ-KFS-RN6-39U
150.998095,-33.948821,N2G-9SS-RGV-CDB
150.998043,-33.948987,HXO-646-XV8-O5D
150.998005,-33.949165,4A1-4S8-YMO-AOD
150.999766,-33.948869,HWH-FPT-V49-CTK
150.997817,-33.949596,CD7-NA4-EVP-OWG
150.997866,-33.949374,RO3-TUV-72T-FP3
150.997666,-33.949867,MDC-5RX-A8R-2U4
151.000063,-33.949256,YC7-B25-NM5-BQ7
150.997889,-33.949254,BN7-NB5-F6D-AC2
150.997897,-33.949204,8PF-ZJ5-YFE-1NS
151.000031,-33.949425,TVA-A11-KJT-K8G
150.9979,-33.949133,4FY-9SN-U1M-RTG
150.997953,-33.948965,7N1-OP2-B4Y-RN6
150.997992,-33.94883,MKU-Y8Z-KN7-U9G
150.998074,-33.948382,GOU-U9C-R2Q-KXA
150.996784,-33.949758,MBW-XWG-81C-5W5
150.998093,-33.948315,CMA-23P-ANJ-99E
150.997028,-33.949929,EKC-6VC-ADS-3JZ
150.998111,-33.948254,W7F-VET-KBK-7JD
150.999087,-33.94974,KH1-WQD-47T-AJC
150.998114,-33.948178,75A-QV4-26D-C5C
150.99896,-33.949752,XKV-K1K-T8S-YMM
150.998139,-33.948129,UG5-51S-E8Y-JS7
150.998224,-33.947768,16N-H1N-M6Y-1OQ
150.996806,-33.949623,E4Q-KKD-SFK-ZGT
150.998655,-33.949771,JUM-E7W-PUJ-2OC
150.998231,-33.947718,S8D-ONK-UO7-O1C
150.996842,-33.949459,41E-F14-O3F-1YR
150.998246,-33.947625,W2Z-DAB-BNT-EJ7
150.998254,-33.947563,8G2-CQ6-DUE-MU2
150.996848,-33.949391,HJP-NQQ-5TP-6JY
150.998321,-33.949801,WTH-Q3O-X87-3YT
150.996858,-33.949351,6MF-KA1-EF5-2WX
150.998294,-33.94743,TXD-X92-4XX-U9X
150.996882,-33.94927,DE9-KHA-9KR-GRM
150.998311,-33.947367,EZE-O7M-SVR-GWF
150.998139,-33.949831,X9U-KVO-P1O-UA7
150.998307,-33.947324,VSG-OGO-XMU-7H6
150.998336,-33.947216,XO4-AX6-2VH-3B8
150.998344,-33.947141,K1N-R3X-WH4-TU7
150.998396,-33.946915,9EE-SRO-4HT-P79
150.996912,-33.949154,RAJ-ANE-KMQ-E1M
150.996931,-33.949082,GOV-CAR-MWG-E9P
150.996955,-33.94897,1AP-7YU-FME-EU2
150.99843,-33.946797,SU4-JSX-D7G-Q3O
150.996992,-33.948825,T39-YQ7-OMZ-3V1
150.998468,-33.946654,W86-9KK-W9F-MKH
150.998745,-33.945877,5N9-PED-HGO-YNC
150.998471,-33.946376,4AD-9D1-2B5-AV6
150.998472,-33.946362,ZNM-OBV-3B1-Z7O
150.998976,-33.945926,XTP-63X-FEZ-VK2
150.998469,-33.946144,8O1-VB5-GC4-551
150.999286,-33.945962,XWQ-HW7-HHE-SGR
150.998454,-33.946064,GHW-P4Q-JSV-11J
150.998461,-33.945996,7OR-J4K-WPM-95U
150.999406,-33.945987,CAD-X9Z-KXT-KQX
150.9971,-33.948292,OM9-OND-TF4-DNS
150.995633,-33.94995,JDF-8ZF-2M4-SXB
150.997156,-33.948072,VH3-5AX-WSR-66E
150.997165,-33.947998,JZW-DP1-U6B-M6D
150.997187,-33.947901,6B8-6QN-J99-DDQ
150.997256,-33.947624,EUA-TXH-Q8K-U64
150.997456,-33.947875,FKK-OKQ-5T5-F25
150.997285,-33.947478,QOA-9CW-FMU-O5B
150.995737,-33.949538,798-Y1Q-7T8-ZT2
150.997458,-33.946761,KHO-RY8-SBS-23R
150.997484,-33.946666,6EA-7VY-7MO-QO8
150.997563,-33.946375,C4M-EJ1-UDZ-N4E
150.99758,-33.946255,FCJ-742-2WO-ZN6
150.997543,-33.945881,SOE-19W-PAJ-3AS
150.997529,-33.945994,Y41-VDB-PK6-TXM
150.995898,-33.948775,NOB-3DA-7Q2-H4V
150.997517,-33.946053,FJO-JXR-4H4-3XG
150.995906,-33.948752,VBC-8Y9-KPC-GEO
150.997443,-33.946357,OA8-U6K-MW6-QSQ
150.99595,-33.948584,Q8D-8OM-3X9-TTE
150.994551,-33.949246,M8R-X16-9PQ-A7G
150.994627,-33.949028,GAF-9DY-JO1-N9G
150.997378,-33.946622,JYH-7TK-MFJ-XJG
150.994812,-33.948831,ZT2-642-E2M-UC2
150.997349,-33.946768,9CT-9C9-85G-C3H
150.994804,-33.948856,3FO-86C-A6S-N8R
150.994743,-33.949004,TWC-R6D-F1O-XFG
150.997264,-33.947066,TBT-FCJ-7UG-SAK
150.997202,-33.947323,25B-NHY-Y14-XCC
150.994708,-33.949118,G8K-9P5-JBE-O56
150.997126,-33.947615,JPO-OJR-UA7-482
150.994665,-33.949356,GZU-CME-ZBD-DQ4
150.997083,-33.947865,3XM-KDR-HSB-B5E
150.994639,-33.94944,CV3-72X-UPR-FK3
150.997025,-33.948123,8DB-XBH-36O-XXM
150.996964,-33.948392,2KK-WRF-9HB-G1J
150.996958,-33.948434,B1S-8NC-MD8-ONS
150.99457,-33.949862,928-ZB4-B2Z-SM8
150.996937,-33.948513,NTH-MXB-V4J-F5K
150.994371,-33.950051,PMP-HU3-AYQ-77P
150.994381,-33.949958,3BW-B8M-DGV-CWU
150.996903,-33.94869,EJO-UN4-5CX-86S
150.994531,-33.949351,235-5DE-3EP-QTR
150.99685,-33.948946,1KN-5AV-UHX-XKQ
150.996818,-33.949087,9HV-8D7-53E-76C
150.996783,-33.949229,KR2-VUY-K9M-VJF
150.996765,-33.949349,F7O-46C-ECX-GCG
150.996721,-33.949517,Y16-FT9-6CQ-5SF
150.994883,-33.950147,YZ8-RE9-DU5-VTM
150.996661,-33.949807,T4X-E6E-FP5-OP1
150.995367,-33.95011,X67-8YD-CBN-P7Y
150.996421,-33.949997,Y3M-NQR-V9X-8N4
150.996281,-33.950018,1JV-5CZ-GFQ-HC7
150.996002,-33.950037,YOV-Q9R-JHK-Q6C
150.996145,-33.950021,DEH-KME-R8M-RJV
150.995811,-33.950061,QT6-OZQ-ME8-G3O
150.989124,-33.9539,448-QGQ-OB8-DU3
150.989181,-33.953876,WUF-V61-ZN9-HWE
150.989274,-33.953825,5SE-Z2Q-KD2-GKO
150.989341,-33.95379,M4Q-2VA-TAP-QU1
151.004199,-33.949324,4A7-EXC-D29-3T8
150.989399,-33.953759,SBY-MCF-6RG-O15
150.989478,-33.953716,3OE-KRW-ZZK-YPF
151.003847,-33.949272,URT-FW7-7RA-OYR
150.989597,-33.953634,OMB-GFY-BN7-HWE
150.989685,-33.953595,U1O-E9F-63D-JGA
151.003273,-33.949426,KEK-819-ZQX-5MR
150.989843,-33.953499,3X9-4B4-WTX-WDX
150.990009,-33.953406,O5K-AFW-VWM-T7M
150.990228,-33.95327,5F1-41M-FTS-JZB
150.998318,-33.94583,7QZ-T2O-E69-VNK
150.99092,-33.952894,3G3-5ON-UMD-U1J
150.996222,-33.947334,KPD-86G-8XR-GTX
150.991018,-33.952834,FBP-YGS-8DV-KAC
150.991157,-33.952757,4RE-7RW-8WC-KQ8
150.998205,-33.945801,ONR-G56-6ZD-G54
150.991416,-33.952593,6X4-9OY-8VV-SA9
150.997845,-33.945752,3VP-UN3-CZ9-J4V
150.997515,-33.945706,915-JGT-91K-BZT
150.99626,-33.947175,2FA-GJ5-RAP-WKH
150.99215,-33.95256,CJZ-PQR-EB7-2OR
150.997351,-33.94567,GQD-Q7U-Z96-OU7
150.996275,-33.947118,X7E-K84-KAO-YJY
150.997134,-33.945614,36Z-W7P-CYX-PXT
150.991845,-33.952588,8AM-RKO-6FB-JE9
150.991517,-33.952709,3B2-688-TGP-69X
150.996329,-33.94686,M5W-5G9-T2E-A3E
150.991412,-33.952774,NY6-CGY-CXN-E9Z
150.996343,-33.946788,H38-X1O-BAF-ROP
150.991114,-33.952935,RH7-OFV-1CF-5K1
150.996995,-33.945614,H1Z-8KG-XAT-35K
150.990968,-33.953018,BJQ-9PP-3G9-1MR
150.996351,-33.946756,F5E-DAR-96N-1BO
150.990833,-33.953093,27J-MAY-XZN-R79
150.996841,-33.945608,XBN-5HW-N99-KE7
150.990574,-33.95324,XT5-Z6C-YAQ-M6B
150.996702,-33.945584,A44-GDC-HAB-3H2
150.996361,-33.946675,KU2-JBM-S1D-T17
150.990422,-33.953327,B4S-JRU-PMC-Q41
150.996367,-33.946653,945-ZRS-TW4-YUK
150.996589,-33.945567,TD1-GEJ-SQR-5GJ
150.990166,-33.953466,SVH-1EM-ZOX-P62
150.99645,-33.945541,VHT-RGY-AMK-JFH
150.996379,-33.946622,31N-57K-3XE-ZZ5
150.989999,-33.953561,DY7-8JA-N22-Q8P
150.996273,-33.945506,PF2-1EY-5GO-JOH
150.996392,-33.946567,OMN-N38-XYA-DK3
150.996101,-33.945481,OVR-5S7-P6N-C8R
150.996401,-33.946534,5N2-T93-O47-GMF
150.996226,-33.946692,HJU-4JF-EKT-D6P
150.989768,-33.953688,FZJ-P9W-N95-T76
150.99623,-33.946646,R7A-DDM-H5T-7G8
150.996231,-33.946618,OAO-8UP-SW7-3WU
150.989324,-33.953942,EW3-6C3-GUH-6KB
150.9946547,-33.9452524,2N8-4CR-83F-2HS
150.989277,-33.953968,BVS-YHP-G8T-QZ9
150.9947821,-33.94527855,HOA-VN7-BX8-W32
150.996173,-33.946364,CSH-MT1-25X-73F
150.988939,-33.954152,VEH-UPK-9DS-VDA
150.994954,-33.945311,KFK-ZZF-6FY-M8G
150.995954,-33.946335,X8Q-2QS-33E-6XW
150.988687,-33.954336,HJK-EXP-NTU-VVV
150.995115,-33.945341,UWY-KNV-JRD-J32
150.988533,-33.95453,D41-1DN-JCE-OXJ
150.988617,-33.954185,JAQ-RN2-XVN-GN9
150.995611,-33.945417,TNR-CW8-5XT-GSE
150.988685,-33.954153,KUD-A69-4EV-VXY
150.988771,-33.954097,9NZ-OFZ-3WP-C9E
150.994467,-33.946237,DO5-SZJ-P6D-V8P
150.994839,-33.94617,3G1-O5C-TV1-XZ8
150.994011,-33.945461,T2B-N3W-JRP-W4H
150.994049,-33.945279,CXC-WEQ-95W-3Q9
150.995596,-33.949488,KXS-ERX-7VJ-ZRV
150.994063,-33.945839,X5W-96E-88D-VE4
150.989116,-33.954933,KQN-TOX-K16-O4P
151.003631,-33.949688,3DD-DR3-57R-31O
150.98932,-33.954954,E35-9Y8-R4V-N9K
151.003664,-33.949843,FY8-16A-AHU-EJH
150.992956,-33.949069,9B3-W8W-ZN9-RW5
150.989656,-33.955002,XB1-PV5-N21-818
150.993016,-33.949125,U2T-FP4-4GB-VEJ
150.993067,-33.949177,EO3-5Z9-8JO-EP2
151.003688,-33.949963,1D4-GJY-CBH-N8X
150.993207,-33.94933,Q5H-UCS-MPJ-A61
151.003747,-33.95014,6HE-VN2-M5R-G1D
150.990006,-33.954873,PJX-JSS-CTS-AKP
150.990012,-33.954784,YY3-5W6-44S-46N
150.993244,-33.949401,DCD-JX3-6XU-11Z
151.003781,-33.950276,K3W-OY6-H1V-K9K
150.990044,-33.954642,PUR-5ZM-RAE-YFW
150.993296,-33.949452,XJO-X22-W72-EQV
151.004118,-33.950355,OJJ-FNM-4VM-R3Z
150.990107,-33.954487,WMN-J4K-XNK-SHG
150.993343,-33.949506,NEN-2EN-UG1-283
151.00426,-33.950314,3QY-K5N-SCQ-NEZ
150.993507,-33.949946,PSJ-BZ9-WPE-J9N
150.990257,-33.95431,8JA-6Z8-726-6W6
151.00434,-33.950369,C8Q-5TH-U3Z-8CY
150.993292,-33.950064,PO9-FA1-NDW-YXY
151.004326,-33.950485,SQD-NS1-QG2-78H
151.004176,-33.950493,BE3-M7B-HKM-EOP
150.990661,-33.954074,TM2-EMM-M3A-8H8
151.004005,-33.950476,HFC-R8J-UPK-GZE
150.990792,-33.95399,YVX-WNA-8FN-TRD
150.992997,-33.950242,583-C4R-9D3-BEA
151.003881,-33.95062,4T2-69E-SSS-OM1
150.992889,-33.950304,TEK-OPE-BUB-AAU
150.991239,-33.953745,6GJ-RZT-EJA-XP8
151.003943,-33.950852,WA4-3KM-BOJ-6MC
150.991407,-33.953652,BJ8-754-HFM-21A
151.003991,-33.950996,COD-KHW-GKE-3GD
150.992742,-33.950379,26U-WHK-RYG-MZ6
150.991525,-33.953578,VJX-79X-833-Q4N
151.003999,-33.951101,5DW-6ZD-44N-FJK
150.992693,-33.950409,WTB-FH2-N7A-V8W
150.991952,-33.953362,4QU-6N4-WMK-ZD3
151.004022,-33.95142,RQC-7UY-6MX-K24
151.003882,-33.951501,TOZ-UYC-YNF-GCJ
150.992116,-33.953305,FKE-BU2-B2E-7PE
150.992395,-33.953231,EQ1-QQS-W1V-C2D
150.992508,-33.953212,6GY-22Q-4SJ-ABG
150.992628,-33.953198,Z9G-SOK-7XS-UTX
150.992952,-33.953194,2NZ-PRO-67U-AZY
150.992322,-33.950614,XSK-QHF-GDF-9F1
151.003926,-33.951314,Y43-DHN-XT3-6P8
150.993096,-33.95321,NRA-GP7-K1B-7J3
151.003936,-33.951205,MXP-3GE-SBK-QD1
151.003927,-33.951178,CY8-TAW-KAS-GZM
150.993614,-33.953281,QC8-AE2-DKH-QY4
151.003921,-33.951151,GOS-QE2-7M1-SNG
150.99146,-33.951317,UMY-QQD-9A5-PFQ
150.993823,-33.95331,PMR-N5C-OR8-JNZ
150.993972,-33.953328,AFO-CF8-8NV-KF6
151.003848,-33.950911,EH6-EH2-Z25-OFV
150.994254,-33.953377,GF5-9BM-DFJ-FRU
150.994422,-33.953435,G17-7E7-PYH-BES
150.99189,-33.951842,W5P-1KS-7JJ-43Z
151.003764,-33.950646,ZKD-CPH-MZ5-WDK
150.994619,-33.953349,1C6-1J9-9K3-4YM
151.003744,-33.950501,TW8-EVR-SEN-CYO
151.003705,-33.950388,WUO-PNX-T84-E9K
151.003662,-33.950243,H4U-TB1-FA7-G9A
151.003568,-33.949976,477-63C-7MO-QER
151.003536,-33.94982,TXO-YZA-WYN-HHW
150.991912,-33.951854,SDD-1XR-RYU-8RH
151.003514,-33.949624,2JO-882-A99-PKU
150.994978,-33.953042,32B-NBD-C42-XMU
151.0035,-33.949532,U7V-AGQ-8C7-MVZ
150.992002,-33.951985,BCO-B4T-23E-WZA
150.994771,-33.95337,T5R-8T8-SZH-XJ4
150.994656,-33.953695,BNS-SDS-AP9-6YF
150.99203,-33.952014,FD4-Y9A-AZ3-ANO
150.99215,-33.952171,MRH-43A-1MK-HCO
150.992163,-33.952187,95F-BBK-DTM-ZAG
150.992182,-33.952209,5XK-3H6-4N3-62F
150.992354,-33.9522,YXD-BT5-MQY-QDO
150.992334,-33.952174,EGT-Z69-55J-699
150.992273,-33.952103,7FG-NZT-EG8-U1K
150.992256,-33.952084,FF1-6M4-654-9RE
150.99223,-33.952062,855-RU3-4DO-SHB
150.992209,-33.952071,2K4-GC7-358-G55
150.992172,-33.951987,BE6-VZK-P67-WAX
150.99215,-33.951963,AMO-ECD-CWJ-3RJ
150.992061,-33.951841,QFG-TNN-QPT-OA3
150.991974,-33.951736,STA-4CG-WES-CYW
150.991801,-33.951525,T65-7K2-ROT-7TV
150.991717,-33.951432,JZR-54G-6F5-ER5
150.991676,-33.951378,11A-FO7-D19-N4U
150.994645,-33.953966,EVJ-1CQ-52Q-6T7
150.991667,-33.951365,HQF-PBR-3OD-FXS
150.994678,-33.954049,6Z9-PZQ-6U1-1K6
150.991635,-33.951322,P7A-6RO-RNP-6MM
150.994527,-33.954008,79G-FJ9-K46-293
151.004115,-33.951563,HJM-KEX-EBY-3NT
150.994362,-33.95391,ZVN-4QK-B6C-YRQ
150.991614,-33.951283,KH4-119-QHF-Q6P
150.994148,-33.953888,SKR-GO3-QQG-F2N
151.004257,-33.951639,8ER-KO1-1QE-JT1
151.003896,-33.951474,JH6-A8T-FQQ-HBG
150.991614,-33.951173,6V5-F88-ORW-R2P
150.99352,-33.953864,24W-9PA-X8H-JDK
151.003866,-33.951531,GPN-M5X-JY3-GAJ
150.993398,-33.953874,991-KR8-HZG-PRW
151.003856,-33.951544,WP1-QXS-UT3-FNH
150.991694,-33.95112,YSE-6RD-47M-FNH
151.003814,-33.951576,WCF-9DT-36V-VE4
150.991751,-33.951084,QFF-YS5-WMW-GTF
150.993361,-33.953881,ZCY-8CV-RKP-AFF
151.003794,-33.951587,DBJ-THP-GF9-1CB
151.00374,-33.951597,FGO-U18-2KG-NA5
150.991869,-33.951016,3D9-3NM-4EU-M7K
151.003679,-33.951615,77C-XPX-TMD-HT8
150.993086,-33.953936,AXH-7TJ-KBP-FFF
150.992795,-33.954029,2VM-3HJ-2N3-SFM
151.003621,-33.951625,8TW-3M4-88M-3NM
150.991992,-33.950955,U7J-6T3-6NJ-OPE
151.003714,-33.9517,UBG-WBG-2OQ-HA5
150.992524,-33.954123,2Q8-N6D-OCA-6ET
150.992094,-33.950887,4QX-FEX-YEC-TKU
150.99226,-33.950799,YP4-ZRF-7TU-RMY
151.003218,-33.951813,R44-JR3-6Y4-23Y
151.003269,-33.951703,TQR-K4R-V21-E8D
151.00308,-33.951943,A6E-49X-373-GAZ
150.992289,-33.950783,CJ3-O4F-Q52-HRB
150.991347,-33.954762,XHX-8R1-MMG-6SU
151.003046,-33.952085,XQC-O75-S3K-X62
151.003026,-33.952254,3M1-5BG-JGA-TYM
150.992494,-33.950667,CFO-1WZ-4WE-MTA
150.991409,-33.954621,Y2S-QF9-1P8-FEG
150.992552,-33.950625,TBC-6ZX-236-AWS
150.992673,-33.950558,GT5-EFW-96W-2DS
150.991743,-33.954434,YHN-XR5-GDS-MM5
150.991871,-33.954356,VTG-KC5-JO6-W9F
151.003108,-33.952504,1AO-FH2-A4N-N2Q
150.992205,-33.954158,S44-3G8-DGQ-EHZ
151.003419,-33.952435,HQD-HKX-4UN-QF4
150.992967,-33.950405,XSC-9FV-7QX-H12
151.003637,-33.952394,JST-CGX-XVR-XES
150.992131,-33.953691,VAW-SXZ-AW3-1RX
150.993046,-33.950354,JFF-ENN-45A-3NQ
151.004083,-33.952289,T5N-TOS-NBY-FT2
150.991706,-33.953603,6GM-WJC-E3R-G2S
150.993088,-33.950337,64B-UHB-HR2-OOU
151.004361,-33.952244,VUZ-D96-986-AN5
150.991436,-33.953751,BX2-58W-HJ7-KF5
150.993225,-33.950257,7FG-VB4-GYO-765
150.991321,-33.953813,2V8-WXU-YPP-67E
151.004777,-33.952169,7P8-6XB-HHE-3EK
151.004932,-33.95217,7J1-SC3-HK9-CFF
150.991116,-33.953929,T3A-PO7-ZP4-M6B
150.993873,-33.95014,4VQ-MCV-3A7-P4D
150.990933,-33.954028,1E1-BG3-JWT-7Y3
150.990861,-33.954073,PHY-4T7-3U4-OYV
150.99071,-33.954155,52R-71A-1TU-NMJ
150.99393,-33.950232,CSC-FX3-RWA-19K
150.990283,-33.954431,E81-647-SAP-9OX
150.994025,-33.950535,OVB-7YF-PW4-162
150.990206,-33.954537,EZ2-2CU-JTE-9VX
151.004435,-33.952322,V9Z-9CY-P86-D1K
150.990134,-33.954777,AAX-AAH-CDM-MQ9
151.003748,-33.952447,8H9-PYT-45T-6HU
151.003595,-33.952491,KK2-4RY-XQE-GE9
151.003424,-33.952534,3G3-BMC-3N4-4PH
150.991449,-33.955226,DU1-OGS-T4K-6GM
150.991313,-33.955204,9OT-GQM-QVE-R2F
151.002937,-33.952742,5GP-ODT-SBE-QN4
151.002906,-33.952899,BF2-E3U-CBV-4B3
150.993583,-33.951176,Q7Z-T2X-BZD-9JE
151.002872,-33.953107,JVQ-69F-S6V-BTR
150.993199,-33.951415,DTE-YUO-WRJ-F93
150.993134,-33.951554,XF7-6A7-DFM-SKB
150.993036,-33.951621,MUT-Y8N-O8R-25Q
150.992903,-33.951608,1VD-1H2-2J7-6ZS
151.003253,-33.953338,4X2-1XC-8K6-C5J
151.003392,-33.953324,A1V-2XA-D6E-O89
151.00366,-33.953285,M7H-6VS-A3D-VVW
151.004408,-33.953202,19A-H2Z-21N-RRG
151.004612,-33.953177,CGW-JXB-52M-AUO
151.004761,-33.953167,8WF-53N-P6X-O9P
151.004918,-33.953135,51K-UNC-J86-AOY
151.005442,-33.952889,7RB-RGF-NO7-RTH
151.005441,-33.952635,GEH-KGT-E4B-84R
151.005414,-33.952452,OEU-64D-YQ4-B5G
151.005327,-33.952023,6M4-MHU-DH1-PYW
151.005309,-33.951889,9SX-QHY-BQP-Z7U
151.005248,-33.951576,PRA-FBT-Y38-NFG
151.005221,-33.951465,FQZ-9QE-BQC-O65
151.005196,-33.951317,1PV-G21-C3S-RAU
151.005148,-33.951171,P5E-FYX-JBD-S38
150.993122,-33.951344,4BM-MH5-TQ9-JVE
150.993237,-33.951273,K8K-2CA-2DD-T5D
150.99337,-33.951195,RAK-VGP-PFD-E8A
150.993606,-33.951047,V1E-YXH-COT-WG2
150.993732,-33.950904,R8P-GKP-UHV-7XM
150.993783,-33.951037,M9D-ZVF-UQ9-HC8
150.993819,-33.951316,ND2-1ED-4YP-Z68
151.004993,-33.950255,NPM-K7Z-8ZF-BQG
150.993846,-33.951387,HRB-UN2-B7E-VVR
151.005046,-33.950368,ONO-7N2-Y75-ZSO
150.993884,-33.951451,Q9B-A7Y-WDJ-TWK
151.005064,-33.9505,322-VXT-5Y6-SO3
150.993955,-33.951529,8N4-R2M-H41-1UH
150.994044,-33.951606,EXM-EV9-6OM-AUA
151.005131,-33.950854,Y1V-K86-KWB-P7F
150.994114,-33.951742,1NT-1HC-6QO-3QA
150.994133,-33.951851,KV4-7Y7-B6F-B2O
150.994156,-33.952022,JKE-76E-NSZ-3CB
150.994058,-33.952052,M8H-7XA-NXQ-MCY
150.99404,-33.951945,2E8-V18-MMS-RCA
150.994045,-33.95191,EKG-48C-RBB-HXR
150.993926,-33.951663,662-XN5-JPN-AHD
151.003077,-33.949445,TW9-E4O-F2J-3RX
150.993894,-33.951595,JAU-S12-RD8-CK3
151.002885,-33.949483,WC9-EEF-QBB-XKP
150.993765,-33.951465,KWW-EFQ-SZK-GVO
151.002794,-33.949477,C5W-6Y4-PQ6-SWH
150.993699,-33.951367,KTM-193-OBS-U22
151.002526,-33.94971,PZK-1NQ-OZK-WAW
151.002645,-33.94969,FMD-567-UDC-Y6V
151.002582,-33.949853,381-GO8-Z81-XVQ
151.002695,-33.949817,FHB-J1H-CNG-5CK
151.002709,-33.949972,FFO-VA5-SE8-ZZY
151.002605,-33.949993,27H-3R2-FKZ-8V4
151.002744,-33.950064,N9M-2AJ-C2X-PU8
151.002755,-33.950154,2UF-VYB-A32-6OR
150.993841,-33.950924,GJ6-D1Y-74G-5DJ
150.993918,-33.950818,MWM-ED8-891-9CP
151.002807,-33.950315,GFD-3OB-AYB-814
151.002683,-33.950324,6KH-6EC-HHY-QNQ
150.993963,-33.950762,6S4-CQ7-QKD-TDT
151.00283,-33.950471,82R-PVH-ENZ-2Q7
151.002739,-33.950605,1YG-E68-13X-UVN
150.994165,-33.950517,32K-C69-MCB-JDE
151.00291,-33.950738,M68-5A9-47O-DNT
151.002823,-33.950861,8JK-2PF-611-K6T
151.002978,-33.950998,QWZ-ZNH-H5A-ERM
151.002854,-33.950965,N5F-XA3-YN3-AVA
150.99483,-33.950396,78X-WVZ-Z7N-T6G
151.002901,-33.951136,72Q-PVK-5TK-UEM
151.003002,-33.951108,O9K-VMB-MF2-8VE
150.994868,-33.950562,UUY-V1M-Y6U-XQU
151.002953,-33.951373,UZY-9KT-GNX-8R6
151.002962,-33.951494,FC4-KRY-A5N-XH8
150.994964,-33.950333,H49-C61-X9P-R2P
150.995009,-33.950523,151-YMO-GQB-BCY
151.002992,-33.951615,CYC-DMG-FGH-OE3
151.00298,-33.951871,JE4-GB7-586-ORA
151.002962,-33.951964,S84-YKF-8D8-S3W
150.992127,-33.955138,EF6-X7S-3AB-5VW
151.002944,-33.952111,6YW-D1P-KD9-4D6
150.995055,-33.950741,CCM-2TF-QMB-4ZY
151.002917,-33.952252,4WV-8DS-NTX-PBN
150.991814,-33.955259,DCW-DHM-A4U-NF6
150.995064,-33.950848,4DU-RDO-TGZ-3D9
151.002884,-33.952425,8AT-XSG-XUV-XOA
151.00287,-33.952599,UDU-29T-OUN-YDE
150.992575,-33.954974,AHS-H2K-M51-V8P
151.002825,-33.952777,BEC-YWX-81W-WY7
150.994908,-33.950798,A6C-Q2H-VJX-7H3
150.99272,-33.954915,WAA-Y8D-NBN-S8J
151.002811,-33.952869,OZB-CTC-H9W-E7G
150.994932,-33.95093,OTZ-7U8-72C-AF8
150.99282,-33.954878,T78-8TP-V7R-769
150.994953,-33.951066,BSE-N45-J6B-V1S
150.993453,-33.954648,PY7-ENA-43T-7V3
150.994371,-33.954299,AX6-2DK-DV9-82U
151.002237,-33.949528,RWZ-YHW-C9S-ZJC
151.002072,-33.949568,O7Q-WYN-E44-4KX
151.001906,-33.949557,RYY-3T6-29Q-WGC
151.001502,-33.949616,4NV-431-M3E-GCY
150.994285,-33.954467,4E5-CT1-V2V-8WB
150.995106,-33.951225,OOK-91S-OV5-7WP
151.002054,-33.953435,ZQ5-SE9-EXX-Q8Y
151.0024,-33.953436,PWZ-C2R-ZPV-FOM
150.995162,-33.951507,HPV-ERA-P4N-A5J
151.002576,-33.953424,BHN-EHV-JVR-KGX
150.995163,-33.951619,EGQ-F58-Z1H-2CU
150.996267,-33.95158,MPP-Z2S-1HO-AX1
150.996238,-33.951348,UBV-Y5U-4Y5-29W
150.996227,-33.951309,DTC-KS9-96V-MBW
150.996219,-33.951251,RCX-2RR-UMZ-D1W
150.996374,-33.951134,ESB-9E2-MON-47T
150.99677,-33.951084,CX5-1KV-1UY-KKW
150.996867,-33.951079,G84-NG7-H97-E69
151.001752,-33.949695,GD8-5YG-693-TC3
150.997002,-33.951062,9UK-7XB-FZJ-HPB
151.001781,-33.949884,OGF-5A6-O5F-OS5
151.001816,-33.950092,75A-ETN-9UR-K32
151.001839,-33.950203,6D4-GOG-2AZ-OHC
151.001858,-33.950255,K3P-UGC-OYM-Y49
151.001885,-33.950349,R68-3BX-JWT-KAO
151.001886,-33.950636,PZR-TV2-W1H-GFO
151.002083,-33.951322,98V-JC9-324-BXG
151.002126,-33.951443,YAB-61U-SE4-VJZ
151.002127,-33.951537,RGZ-Y96-XYT-SMA
151.002097,-33.95167,GAY-CC1-VXG-MMG
151.00204,-33.951902,G3G-O88-UKA-ZYG
151.002034,-33.952025,2KM-VZ7-R15-V2V
151.002023,-33.952047,6NR-RGS-1HN-6OT
151.002014,-33.952112,KEC-UZW-3MY-AR4
150.996194,-33.953012,VK5-YHK-SOK-3NV
151.001963,-33.952435,PDM-TQU-NJK-PMP
150.995988,-33.953227,89W-TD6-965-SJK
150.995972,-33.953286,96T-X4M-YNK-24T
151.00188,-33.952983,PBM-AHN-D78-3SW
151.001841,-33.953105,OKX-4AH-ZEF-6BH
151.001822,-33.953192,AGN-BMA-3EQ-PKM
150.995941,-33.95348,E3K-C3Q-2GJ-XC7
151.001822,-33.953263,3DN-3NT-4KS-5ME
150.995927,-33.953589,X8M-O46-67D-HRH
150.997628,-33.950006,Q7P-WMB-GRN-H4A
150.995905,-33.953699,7P8-NEE-UVA-3Y6
151.001687,-33.953242,DG7-G3N-UKM-YSO
150.995897,-33.953771,QCQ-G8C-8AA-46V
150.9971,-33.950059,9C2-DHQ-EFH-NW7
151.001718,-33.953041,5XP-83O-G2C-YGJ
150.996086,-33.953533,M93-P2J-OWN-RAZ
151.001737,-33.952927,9VV-O93-7H8-WUT
150.996066,-33.953619,CJ8-RJ1-H1J-7FH
150.996616,-33.950102,F7J-DNU-XCK-VZH
151.001775,-33.952739,CJZ-V8V-668-9T5
151.001801,-33.952614,KXK-TH8-ZHV-KO6
151.001808,-33.952533,3SG-GV6-43D-DDN
150.996187,-33.95016,7ZJ-EWX-HPT-OB6
150.99572,-33.953931,FMC-S15-5CU-XBW
151.00182,-33.952439,ENU-PWK-5GX-O4E
150.995447,-33.953978,U22-PDC-4NV-FOK
151.001826,-33.952385,2KS-7TE-9T9-WF8
151.001834,-33.952365,71Z-M8G-H3O-WT9
150.995191,-33.954034,4N8-MRO-PZ1-DKK
151.001841,-33.952329,QJQ-TVP-CJJ-JUF
151.001872,-33.952231,P79-POZ-NSB-CBA
150.994903,-33.954104,NXT-BMA-3UH-JXR
151.001869,-33.952184,7KJ-NM8-JPJ-E9U
151.001877,-33.952072,TOM-VDH-FE7-OOB
150.996078,-33.95032,8R5-V95-3JQ-NCD
151.001901,-33.951963,2BM-N2G-3E6-6BA
151.00193,-33.951848,4H2-9O8-KF3-NWZ
150.996086,-33.950371,YWS-UAG-EUO-DFC
151.00197,-33.951616,AGA-XTF-XCT-OM6
150.995929,-33.950296,ZY6-KN9-QJ9-P28
151.001995,-33.951491,6K3-J7M-S62-HEU
150.994659,-33.95433,2RZ-AHK-NWR-B7K
151.001977,-33.951377,VBG-ZXW-3YX-XFG
150.994836,-33.954256,X29-694-AK7-CCE
150.995944,-33.950398,QHJ-MNR-6AM-AMR
151.001883,-33.95119,G3G-G7X-DDO-CNM
151.001874,-33.951086,13C-AN3-GTS-6F6
151.001838,-33.950981,ET3-NUC-FBA-PAA
151.001829,-33.950909,556-GG9-BAP-817
151.001814,-33.950824,NDR-77M-66X-JW8
150.995954,-33.950553,QHD-4RJ-1FR-PTR
151.001807,-33.9507,SBH-MSR-4MN-KU9
151.001792,-33.950614,83B-XD5-YMH-Q18
151.001774,-33.950542,H9T-4WF-GNO-QWH
151.001757,-33.950388,RWS-EAE-Q86-EU8
150.996021,-33.950932,DBP-GTW-ABG-2QT
151.001752,-33.950295,E3R-A5H-7XK-OGC
150.996025,-33.950968,82A-9AJ-14W-WNF
150.995549,-33.954089,V3N-FUD-GWE-576
151.001704,-33.95011,3GF-HZD-V9T-EMH
150.995659,-33.954063,ZJV-E1R-65F-9WC
150.995739,-33.954047,7UQ-XWB-QG8-2WZ
151.001685,-33.949993,TKN-XFN-AO2-DTQ
150.995703,-33.954055,K2K-TZ7-QAR-AM6
151.001673,-33.94986,KKT-QCC-13P-DGK
151.001669,-33.9498,9Q8-KQW-4R8-8AO
150.995837,-33.954026,KG1-V85-J5Z-EC4
150.995984,-33.954002,3B1-B2T-8ZM-1YS
151.001662,-33.949706,JV1-1KW-SME-F48
150.996369,-33.953932,TAJ-7FH-TWO-71F
150.996416,-33.953926,2PM-S1F-PFN-GJB
150.996551,-33.953896,XHM-FP3-76C-PMK
150.99604,-33.951055,V8P-NVD-BM1-7T8
150.996067,-33.95132,7V6-GZN-3PB-8Q4
150.996446,-33.953795,Y3X-C5A-GSO-KBR
150.996628,-33.953756,1CQ-MOQ-5M3-V5S
150.997459,-33.953688,QSJ-WDH-JKZ-69Z
150.997615,-33.953686,BOF-W8Z-RZY-AV7
150.997953,-33.953667,YX1-BV6-NKR-RUV
150.99607,-33.951347,244-QON-7R4-3C2
150.99609,-33.951436,9TR-7ZD-EM6-O2Q
150.996113,-33.951552,O51-A97-NCQ-2ED
150.996121,-33.95164,Y26-XNC-1UP-8D9
150.996164,-33.952064,TRG-PZR-N31-SJW
150.996123,-33.952197,US9-1JQ-9V7-FS3
151.001174,-33.94964,B42-X9G-E6P-D7F
150.996093,-33.95245,K2C-24Y-7QU-B5J
151.001103,-33.94964,C56-WBZ-VYE-9HE
150.995891,-33.952802,6FC-Q3F-RSR-HD2
151.00098,-33.94967,NBP-KRZ-JE8-KRV
150.996088,-33.95255,NSA-Z52-JVJ-O77
150.99595,-33.952815,CQ5-DX6-EVH-QOY
151.000735,-33.949962,N6H-D7T-3OM-JX2
151.000871,-33.950071,QVW-MVO-Z6P-8PJ
150.996074,-33.95261,2D1-SRY-FQJ-484
151.0007769,-33.95012075,5VS-79Q-1NM-3O6
151.0008855,-33.95020502,P6Q-AK9-545-3B2
151.00092,-33.950367,FC4-VWW-5MH-P1X
151.0008074,-33.95038329,VK2-XP6-Z6F-HDU
151.0009217,-33.95047924,SQN-945-ABZ-35N
151.0008282,-33.9505179,HQF-12Q-Q6Q-329
151.000953,-33.950622,W9E-HR9-426-9SQ
151.0008426,-33.95063972,946-AED-JU5-2HH
151.0009605,-33.95075055,647-FWC-78X-ZG3
150.996325,-33.951997,M9A-QP7-WNN-VMC
151.00086,-33.95074151,AWQ-TCC-YDD-3HJ
151.00097,-33.950794,S53-POB-DTA-UEC
150.996315,-33.952072,VA9-OF4-TK1-GM5
151.0009817,-33.95088029,XNC-KT9-9BP-MDY
150.996264,-33.952328,UDT-ZYF-X5M-75H
151.0009848,-33.95091366,SY9-GN5-ABG-SQN
151.0008627,-33.95080659,MF8-QME-SPC-UKK
151.0008812,-33.95088251,7BM-E4Q-42Q-N47
150.996232,-33.952474,TFB-56Z-R6W-X7B
151.0008855,-33.95093758,BPX-9NU-8RF-M8K
151.000997,-33.951017,BK6-XEH-OVS-C7U
151.0009023,-33.95104966,RCG-R4V-JT6-F7W
150.995862,-33.952659,E1Z-H8Y-WQS-V9H
150.995771,-33.95265,S1B-6BF-JA3-886
151.0009194,-33.95117565,EJE-F3J-FUP-5OF
150.99567,-33.95264,OE8-SSK-6NV-383
151.001024,-33.951189,VGS-DEO-N3E-OGB
150.995427,-33.952612,R27-AUK-8M2-P57
151.001034,-33.951312,1GW-O1T-PEC-PVQ
151.000955,-33.951451,JM3-8KV-O2G-AAJ
151.0010672,-33.9515778,RF6-YKJ-A15-U17
150.994409,-33.952483,J94-KMU-392-4OR
151.000926,-33.95165,R12-TVH-UA3-GXN
151.001042,-33.951698,G37-OA8-OKE-2BK
150.9943,-33.952468,RA5-64D-BRS-YBN
151.001028,-33.95184,YXB-B5U-3M6-E9A
151.0008832,-33.95199915,K2A-EUK-91S-GOU
150.993538,-33.952371,KHU-NU3-XZG-8F5
151.000957,-33.952132,K5Q-UTB-R6J-XZQ
150.99355,-33.952373,165-7KP-2UJ-HG4
151.000841,-33.952104,N45-FCD-MVK-K7A
151.000794,-33.952295,NM8-FKW-C9Q-TTP
151.000894,-33.95246,B98-CW1-11K-2YF
150.992988,-33.952347,D32-XEX-CNG-QCA
151.000765,-33.952455,APO-SFC-7A7-5VE
150.992905,-33.952358,8BB-RT9-Q85-UM4
151.000853,-33.952709,Y1Z-VZR-NSY-5H3
150.992746,-33.95237,Y55-91C-SOK-QPH
151.000706,-33.952785,FF7-UN4-R4G-YUW
151.0006743,-33.95296558,XU7-XEG-76M-QN8
151.000808,-33.952916,T1M-PG1-XEJ-3KE
150.992386,-33.952535,6ZT-4HM-EVA-RF5
150.992533,-33.952528,ZU3-OOT-7AM-QQJ
151.000853,-33.953286,G87-91A-JUJ-JSM
151.001013,-33.953316,XMP-9GO-VY1-Z96
151.001218,-33.953347,E64-WSM-3KD-V6R
150.992716,-33.952517,RBG-VB7-TCD-FN4
151.001569,-33.953377,MXF-QWD-WX7-OMO
150.99335,-33.952477,ASC-6N1-QF4-X2Z
150.993432,-33.952494,JRZ-5MF-SFN-PZV
150.993594,-33.952509,1C3-RMY-PXK-6OM
150.993806,-33.952543,TD2-UPE-EYN-OSK
150.9941,-33.952575,33D-85R-VV1-UER
150.99461,-33.952646,DRA-2NR-BYR-S1F
150.994698,-33.952657,XD1-P87-66S-9F4
150.994778,-33.952665,5JD-K71-A13-PNN
150.994828,-33.952673,54T-X2C-7DH-4PR
150.995565,-33.952762,482-621-YUW-SRA
150.995678,-33.952776,848-686-SE3-4TT
150.996341,-33.952861,M8T-FE1-9CX-BPS
150.996582,-33.952883,S9H-ZQ7-8R8-O2X
150.996774,-33.952906,UPV-A38-8NY-3GJ
150.996921,-33.952932,FHM-6YN-J6T-E7R
150.996979,-33.95294,TU8-DC2-A4P-TRV
150.997419,-33.952992,8RX-OSJ-V5Q-BHD
150.997596,-33.953016,7BE-O8B-JGS-RFB
150.9977,-33.953022,AZ9-OOU-PZV-UPH
150.997793,-33.953044,5KJ-XZD-H48-QM3
150.997955,-33.953057,A5N-D4F-NYQ-PC3
150.997046,-33.952821,2C7-CF1-SJ6-7FW
150.99729,-33.952851,4QU-3AW-GO1-X4Z
150.996527,-33.952739,G4R-APP-OVS-ABX
150.996463,-33.952739,3NB-3OS-D96-BA7
150.996347,-33.95272,7PK-F3X-Y2U-4DT
150.997953,-33.95082,7AB-CFE-M5X-8F1
150.997934,-33.95087,TGS-6CW-H8M-9KP
150.997912,-33.951,UGZ-4OU-Y4N-MOT
151.000393,-33.949737,5VM-F6P-9NY-PM4
150.997753,-33.951098,PBP-J5T-5R4-PZR
150.999761,-33.949904,UU9-MPH-SVC-D2S
150.999809,-33.950228,FMW-ZNM-ZAP-QXC
150.999924,-33.950203,QBN-171-W68-HPF
150.999844,-33.9504,ANT-FNJ-MHS-BAK
150.997703,-33.951357,NNW-A8R-W4T-M9P
150.999948,-33.95032,BZY-YKQ-85R-BE8
150.999949,-33.950364,ZFC-XGG-2SJ-OS8
150.999874,-33.950545,VUO-GB2-N35-12X
150.997635,-33.951698,CTM-MZ5-W5Q-3NG
150.999897,-33.950721,PGM-TT4-3OD-YGB
150.997633,-33.952892,4R7-VA8-EDE-7UZ
151,-33.950734,W4X-HA8-REF-QH8
150.99768,-33.952903,Q9D-965-AD8-P5N
151.000047,-33.951003,3ZO-NTA-V84-EAX
151.000075,-33.951151,SFV-2AT-OQX-E33
150.998001,-33.952942,ACA-8TR-BH6-VGG
150.99772,-33.952086,DRF-CBO-ZU6-2QP
151.000069,-33.95121,M1M-TNU-OVF-AKV
150.998195,-33.952961,WMO-9C5-EEH-6QK
150.999945,-33.95115,KRJ-R8Y-93S-N15
150.999951,-33.951287,145-EYA-72A-QRN
150.997661,-33.952392,58D-Q3N-NCG-AVH
150.998456,-33.953,2N8-KWS-XDK-DM3
150.999988,-33.951429,T9D-WF6-8O4-THQ
150.998512,-33.953008,UDD-HG4-BB7-PA1
150.99767,-33.95236,Z94-QQJ-NA2-VFU
151.000116,-33.951425,4S4-H7P-7PC-HPC
150.998993,-33.953065,HXX-TBM-RAF-J99
150.999126,-33.95308,OW3-UMO-4HD-ECW
151.000005,-33.951559,ESQ-NZ6-A14-79X
151.000124,-33.951544,OBQ-NPJ-P6J-Y96
150.997631,-33.952531,3K3-QV7-7B6-6ME
150.999351,-33.953109,MYF-4GR-NSH-776
151.000012,-33.951709,VXP-3DR-W5B-A1G
150.99948,-33.953125,CSP-6PH-M5S-U5Y
151.000116,-33.951809,G7N-G5S-KJF-HSQ
150.997584,-33.952759,CYO-AP3-45F-NWO
150.999628,-33.953136,Q4T-Z51-3NB-FVX
150.999797,-33.953159,7KT-472-ZWS-BBN
151.000065,-33.952089,AEU-PFG-PPK-DMO
150.997451,-33.952705,VJ8-Y4E-Y5Q-11A
150.999951,-33.952066,BGP-52V-54V-EUH
150.999935,-33.953186,REJ-72V-4X6-MKO
150.999949,-33.95221,AN4-YN9-CEB-SNJ
151.000121,-33.953207,HHE-KQ9-6Y3-1H9
151.000029,-33.95237,7RB-J5O-EXO-TTR
151.00027,-33.953227,6OP-WTN-NB7-WRF
150.999965,-33.952465,C3H-WVO-7UU-O44
151.000037,-33.95252,VYV-B27-PN5-72O
150.998659,-33.952833,55G-WP7-6DK-6FV
151.000124,-33.952563,6VE-V2D-2Q9-SCZ
151.000678,-33.953421,71O-FYT-9GM-HNU
151.000214,-33.952486,S4H-YOG-WDS-21U
151.000568,-33.953397,G3W-KDM-J25-KV8
151.000271,-33.952607,JHX-W4G-2R1-ZR4
150.998697,-33.952564,O48-Y7C-ZUW-UMA
151.000347,-33.952503,AQM-P4S-QBO-XWC
151.000603,-33.95255,2WU-JMW-HU1-OOU
151.000388,-33.953381,J7Q-OEN-AJX-75X
151.000189,-33.953357,D44-WQM-121-MMF
151.000557,-33.95265,1EU-SAX-J5F-REF
151.000055,-33.95333,TF3-MZ6-P82-VGX
150.998854,-33.952535,P4U-AT1-W87-WT6
150.999935,-33.953315,JQO-G83-OK7-7CT
150.998893,-33.952398,4BN-OTR-TS4-4BK
150.999814,-33.953283,E3H-ABP-ZZH-M64
150.99974,-33.953283,86E-MUY-OKO-FDR
150.998907,-33.952279,U8Q-8NZ-W9H-9TB
150.999602,-33.953267,YMX-V9F-59X-PRZ
150.999412,-33.949835,635-MEF-DF4-HJR
150.999197,-33.949853,4ZJ-MEH-ZC5-PYC
150.998932,-33.952156,QSH-1H1-BSP-9HC
150.998756,-33.95223,YGD-E82-QSK-PHU
150.998735,-33.952374,FWH-MPO-UBP-9WA
150.999454,-33.953251,272-5KM-1GQ-AVT
150.999331,-33.953231,YXP-QRJ-B3N-JMV
150.998785,-33.952073,NPR-4DD-OOX-8ZF
150.998814,-33.951954,171-SFR-ATT-S8X
150.998949,-33.952009,AEP-UUE-FUY-PUB
150.998977,-33.95189,2CC-MGR-6K8-RWW
150.998979,-33.951875,UJ9-7GV-G25-P5J
150.998993,-33.951788,O1B-HSK-U5K-V62
150.999017,-33.951652,D5A-S42-PZD-BFR
150.999041,-33.951501,ABP-53G-MGU-452
150.998866,-33.951539,8J9-P91-HMF-FAF
151.001152,-33.953464,K1K-4UF-KUS-5FV
151.001305,-33.953489,FSQ-Q88-Z1K-XMG
150.998896,-33.951391,71B-Y9C-T2J-NQM
151.001392,-33.953495,KJX-JJK-SFR-MMB
151.001485,-33.953512,N7Q-YX8-4FP-J1U
150.998929,-33.951108,344-NKX-AZJ-UVD
150.999093,-33.951068,BD3-YVR-FQ7-FDZ
151.001602,-33.95353,8GD-74E-4YA-G43
150.999085,-33.951092,ZCF-1PD-2YY-JPS
151.00174,-33.953542,AYE-6P8-MKW-R32
151.001854,-33.95354,78K-2TJ-VAB-ZH3
150.999072,-33.951217,ADD-FSZ-N7B-QDE
150.99906,-33.951344,X3Y-617-A7O-QC6
151.00197,-33.953564,984-D8X-4Y8-JZA
151.002123,-33.953608,73M-KQA-YOA-ZQX
150.999099,-33.950953,PPD-PZW-RX5-HMM
150.999132,-33.950812,41X-KRY-GGA-WEG
151.002139,-33.953609,914-YS2-RDD-6FM
151.002154,-33.953611,5NN-EDO-5K6-F6R
151.002168,-33.953612,ZQQ-E9T-C86-HSK
150.998989,-33.95065,NVO-2R8-JFD-3J4
151.002187,-33.953611,AG5-EJN-ZFY-784
151.0022,-33.95361,PZO-NXH-QJT-67T
150.999129,-33.950626,4PP-VZH-G3O-K67
151.002214,-33.953611,O4B-9GW-JJX-T1D
150.99901,-33.950399,DMX-6ST-7WC-XDK
150.995004,-33.951438,RHJ-YCR-A39-CRG
150.995017,-33.951574,MCM-1P7-DXN-5TR
150.9952,-33.951792,SEP-E1B-VYV-5YR
150.995186,-33.9517,OWT-UEM-C1F-618
150.995036,-33.95167,JZV-JE8-OTW-8RH
150.995043,-33.951726,ENJ-9O9-Y1Z-GPF
150.995062,-33.952234,VZH-ZT2-PXK-5O9
150.99505,-33.952368,W66-AER-M5A-G7S
150.995177,-33.952393,FON-F7S-6FX-JA7
150.995217,-33.952228,663-EFX-97O-O9M
151.002178,-33.953603,C8U-YQ4-7FP-DMN
150.995228,-33.952099,5U6-DAN-DG7-X6T
151.002221,-33.953612,RK1-SG9-AEH-C8C
151.002227,-33.953612,AWA-O25-959-6CZ
151.002233,-33.953613,YOM-2RE-URH-U2O
151.002239,-33.953614,4HU-WO6-ZHJ-BZ2
151.002245,-33.953604,EVF-COA-PQQ-WH5
151.002251,-33.953614,5WY-WJ7-HXH-O1H
151.002258,-33.953614,UTO-WP8-88V-NHU
151.002265,-33.953615,S2F-9OM-X6K-95S
151.002273,-33.953615,BGN-XXB-BZM-P3P
151.002279,-33.953616,CK9-T2V-2WT-M3O
150.991395,-33.955341,WSW-QCC-NRV-T83
151.002286,-33.953616,A4P-QJ6-ST6-JR9
150.991225,-33.955329,VG3-5EQ-NXK-MAR
151.002292,-33.95361,S85-K95-OP3-5YY
150.990959,-33.955291,BO7-1CC-Q22-DWV
151.002295,-33.953616,K8Y-WJZ-8WV-PN4
150.990793,-33.955267,D18-9GU-8JA-DHZ
151.002302,-33.953615,F1D-N61-AEV-OHN
151.002308,-33.953614,UCR-66J-D78-QQX
150.990683,-33.95525,QN4-QR1-MTS-TD4
151.002332,-33.953616,5K5-T4T-NXH-73V
151.002341,-33.953617,MOK-5AT-5UC-PN7
150.990398,-33.955224,OVO-C8P-EB8-MEW
151.002351,-33.953616,UU1-XUP-2KS-1KR
151.002359,-33.953617,TQ6-3AS-BOO-THV
150.990293,-33.955207,UQZ-CBV-EU6-MOA
151.002376,-33.953616,AXB-75U-YFA-SN6
151.002392,-33.953614,KE3-4AD-HWZ-W5K
150.990039,-33.9553,W3T-XT1-AM5-ACY
151.002413,-33.953606,O3R-MJ9-QUA-NOY
150.990026,-33.955366,X13-XE1-Y2A-74T
151.002443,-33.953611,VWU-TEG-UGF-KT6
150.99001,-33.955441,7GA-7ZF-UBX-J1J
151.00248,-33.953607,GD3-7NP-M77-7T3
151.002506,-33.953601,42V-6BJ-7AW-EME
151.00253,-33.953597,9WF-RBN-TRW-EC5
150.989966,-33.955633,6MT-XD3-UTW-OJM
151.002554,-33.953593,42E-NMJ-41P-1EN
150.989933,-33.955794,EDM-SCW-HQ1-FJ5
150.98991,-33.955972,FJ4-3M4-ASH-RKN
150.989875,-33.956096,378-HDF-S63-1FT
151.002618,-33.95359,9UE-G61-DKJ-SJW
151.002634,-33.95359,BQE-8ZQ-NZH-FKO
151.002648,-33.953588,KHW-T64-UKT-TFZ
151.002662,-33.953587,CXU-AHJ-Q3E-6Z6
150.989854,-33.956277,HH9-HKZ-FS8-FNS
150.989801,-33.956488,DRM-J4E-XOT-RV3
150.990012,-33.95668,QTP-4UP-OR9-2JF
150.990114,-33.956617,3ZZ-V2D-Y5B-RZZ
150.989726,-33.956297,CAQ-XBJ-H48-EQ5
150.989761,-33.956133,XJ4-M3N-YDS-4JV
150.989856,-33.955656,POS-FGG-NFN-T5R
150.98991,-33.955369,BV7-CDF-F55-B2U
151.002708,-33.953583,W5P-6BH-DNT-C82
151.002707,-33.953578,O29-25Q-66E-XXR
151.002726,-33.953582,KQT-S34-U3F-NCQ
151.002725,-33.953572,JKA-DKC-VYY-CY2
150.989644,-33.955123,KEK-4YQ-7K4-C1T
151.002749,-33.953581,O82-ED1-JOY-NKK
151.002755,-33.953568,O9O-G9F-3Y2-AHD
151.002773,-33.953578,Z88-K19-547-O1Z
151.002777,-33.953564,SBR-C9H-8K8-53G
151.002792,-33.953577,EZ6-K7U-5B8-F15
150.98926,-33.955069,QYU-7OX-KH8-SYX
151.002799,-33.953564,78T-UH1-7DQ-ZXN
150.989093,-33.955055,CNN-Q59-YX5-SRC
151.002808,-33.953576,FQA-OSH-VAN-3VH
151.002823,-33.953576,6HA-CMH-249-VPP
150.989014,-33.955041,94D-6ZS-UPG-UPT
151.002839,-33.953575,T1P-XMK-5NB-BSV
151.002841,-33.953563,J77-X9E-DC4-VC3
150.988964,-33.955034,WO7-RXZ-V76-2M5
151.001432,-33.953497,PQW-AD5-SR8-PRU
151.001417,-33.953507,SBO-YJV-4GP-ONC
151.001418,-33.953501,PXS-G2X-46X-R6R
151.001387,-33.953491,4E1-F4Z-W7G-527
151.00136,-33.953496,6JD-SP2-S4D-AMO
151.001344,-33.953487,UJX-24N-V78-UO7
150.98857,-33.956497,QE1-H83-ETA-PVD
151.001344,-33.953494,KUR-HAU-U5H-4ZU
151.001321,-33.953488,4U6-ETM-7BA-DX9
150.988586,-33.956083,18P-JJS-U3P-DJ6
150.988409,-33.955994,RZ5-OR4-NZ1-JHN
150.98834,-33.955956,464-BAM-WG6-WZQ
150.988304,-33.95604,F2D-3HX-K5F-UUQ
150.988097,-33.955883,PB8-19W-A3H-483
150.988219,-33.955873,A1P-FCN-CMJ-4QV
150.988142,-33.955769,U3Y-49P-U8O-YFB
151.004329,-33.953748,8NA-XB7-CNG-EJC
150.987997,-33.955658,UHN-6T1-A7E-5HM
151.004221,-33.953755,DUR-EPM-BXC-A2S
151.004116,-33.953763,D3A-Q79-V1J-AZY
151.004075,-33.953767,KMF-DMN-4V8-5HE
151.004065,-33.953775,9GA-Z9V-69B-VHK
151.004052,-33.953776,5A5-NSA-WTX-SV3
151.004056,-33.953765,77F-9W4-CR4-A29
150.987922,-33.955746,QS8-ONT-HRM-2SR
150.987768,-33.955716,QQ2-CWE-S6K-E54
150.987628,-33.955684,KNZ-7M1-9YP-CO9
150.987418,-33.955654,RFR-NV6-PGN-4J2
150.987255,-33.955645,CUJ-ABN-D2W-UJ5
150.988855,-33.955985,NFN-GGR-ERH-K7E
150.988956,-33.956067,71Z-7TW-9XT-TS9
151.002849,-33.95354,7RD-V9O-9HJ-7Z8
151.002868,-33.953539,4VD-RKY-8W3-4GV
151.002885,-33.953538,3M9-PGM-YW2-OXQ
151.002909,-33.953535,5PJ-B9N-QMA-6C9
151.002902,-33.953515,GBB-CWJ-ZOC-YQW
151.002932,-33.953534,J6F-PK9-GK6-62O
151.002949,-33.953533,E6Q-A6G-RKC-SMP
151.002967,-33.953533,S87-BK6-PMG-DS8
151.002981,-33.953532,VAY-Q69-H43-KM1
151.002995,-33.95353,D4G-4QP-DAR-KB3
151.003008,-33.953528,DFK-ZCZ-Z1J-Z2Z
151.003023,-33.953527,7E7-3G6-666-EGN
151.003036,-33.953524,31G-1HH-2YP-7ST
151.00305,-33.953522,S8A-UQK-T78-CCF
151.003061,-33.953521,3V6-44S-UZD-6UD
151.003073,-33.95352,COQ-D6Q-OJ7-T1B
150.990182,-33.956572,JC4-YB9-AT6-NMT
151.003062,-33.95349,6ZY-ZD7-WGJ-FRA
151.003086,-33.953519,1ER-GDC-3QW-4D8
151.003099,-33.953517,QRE-5W8-VO6-GWT
150.987653,-33.956632,VZH-E4D-HQ1-6UT
151.003112,-33.953514,P2Q-NJA-GGQ-TQR
150.987751,-33.956745,VDC-836-JH2-3AR
150.987976,-33.957013,MRW-VC9-7N7-C82
150.990373,-33.956443,SYE-HCT-SAK-SHN
150.990699,-33.956236,UEK-451-RKE-STB
150.988126,-33.957207,OKP-7RX-E6H-1DF
150.990812,-33.956166,MK8-Z6P-KB3-B3O
150.990937,-33.95609,C9J-7X7-HXX-EYK
151.00312,-33.953514,J2X-9Y7-OB7-E6Z
150.988327,-33.957437,SVY-NY1-P4J-PE4
150.98841,-33.957536,S35-T67-UD5-UVD
151.003119,-33.953485,963-TVH-S5Q-78J
150.988482,-33.957469,MWB-6HR-2J6-8FO
151.003129,-33.953513,6QX-BN6-KGY-H4U
151.003136,-33.953512,ZMX-GS9-B94-RV2
150.988527,-33.957537,T7W-HRM-RV1-G1X
151.003144,-33.953512,KDE-TDX-PED-FFN
150.98859,-33.95757,6M4-MXC-684-54O
151.003153,-33.95351,1DW-73W-JV2-BYN
150.988507,-33.957695,XEF-94G-FJ5-392
150.988846,-33.957629,WEO-GA2-PYP-H55
150.988594,-33.957626,EP1-V2X-AWN-B9X
151.003165,-33.953508,9BT-1HP-TN7-QTC
151.003174,-33.953508,889-QPK-7CW-P8P
151.003181,-33.953507,WOY-TWJ-D4O-9A7
150.989182,-33.957336,AEY-G8K-ANU-CM4
151.00319,-33.953506,PWW-2KE-FEK-Q5T
150.989315,-33.957223,QPD-UM5-MCO-NZG
150.989544,-33.957046,BBF-NVN-8V8-32Z
151.003204,-33.953504,6N9-1WQ-ZHS-HHB
151.003203,-33.953464,G8U-BP4-7DZ-YH8
150.987517,-33.957919,CJ2-1N3-GR3-793
151.003216,-33.953503,O42-51C-JOF-P3C
150.987383,-33.957759,BXN-SR2-NDK-UNF
151.003226,-33.953501,TWS-RUF-98Q-BJB
151.003237,-33.9535,UEK-PKS-KB8-OPZ
151.003248,-33.953498,MY2-1TQ-6EJ-8HC
151.00323,-33.953491,9RK-8SC-F1C-BRV
150.987322,-33.957673,3W2-E3C-8FP-F22
151.003265,-33.953496,QZ3-GGG-3EB-K27
151.003261,-33.953454,GSZ-QVK-Z3G-NK5
151.003304,-33.953488,QVB-DED-DBR-8FH
150.987114,-33.957441,R4X-89Z-6SF-M66
151.003338,-33.953484,O5C-7DK-6EU-ZFG
150.986855,-33.95726,38X-KVT-YNZ-HEH
151.003332,-33.95347,YUC-NNE-VJR-OA8
151.003365,-33.953478,DFV-X3E-XV3-71S
151.003363,-33.953459,O3Q-32Z-CWA-5GG
150.986652,-33.956863,Z17-7DG-XWK-M9O
150.986609,-33.956814,JWY-JDE-Z37-K3M
151.003395,-33.953474,GA1-VBG-Q7C-B4F
150.986543,-33.956731,XHV-6QE-YHG-XPR
151.003418,-33.953473,67U-R8W-BJD-VU3
151.003448,-33.953463,MT2-BFU-6B6-WRE
151.003597,-33.953441,SFV-X6P-4KP-U1T
151.003479,-33.953457,KW9-BF5-BXO-1FF
151.003511,-33.953451,18S-GMO-VGT-HXX
151.003564,-33.953441,RXZ-R1E-SX8-QTO
151.003625,-33.953407,J8R-BQ6-B4D-DF1
151.003628,-33.953436,HBA-RN2-BGA-TD5
151.003653,-33.953435,Z82-XH2-VP8-RAO
151.003684,-33.953429,WZC-8KJ-BQS-5OO
151.00368,-33.953401,CU3-78Y-B8M-6CB
151.003712,-33.953418,71O-6N3-E6U-RFV
151.003745,-33.953424,76E-1C6-OGO-T7J
151.003769,-33.953409,T35-RO1-F2O-43N
151.003792,-33.95342,T36-QVB-7R2-WKE
151.003794,-33.953396,K6D-AOV-FYR-FNV
151.003837,-33.953408,ASE-JC9-ARV-ECG
151.003861,-33.953408,7MQ-M8U-4TC-KHS
151.003884,-33.953405,ZAD-P3M-F74-WK5
151.003913,-33.953401,5BN-BZK-QC2-KUH
151.003942,-33.953401,6BU-JD9-MQ5-E9U
151.003969,-33.953399,PUS-9D3-94B-O22
151.003989,-33.953397,GW7-W3W-ZR5-T9S
151.004005,-33.953394,TKT-PPF-4FJ-ZTQ
151.003999,-33.95338,RB1-PXS-Z56-ECR
151.004034,-33.953393,VO7-U87-N2J-2Q4
151.004049,-33.953392,WA8-5PG-YGJ-2WS
151.004064,-33.95339,O3J-1YW-59W-CWP
151.004076,-33.95339,FW7-62R-2MD-2AF
151.004047,-33.953375,4DR-OH7-TDS-9X3
151.004089,-33.953389,MH1-UAC-ANV-OPF
151.004073,-33.95337,YKS-A96-EKN-4HP
151.004068,-33.953375,ZU8-P2W-T73-8CS
151.004089,-33.953374,PN7-XAP-DUF-2YR
151.0041,-33.953389,494-PEX-WAF-NV7
151.004104,-33.953369,OOX-ZJ5-EWS-96J
151.004112,-33.953387,AWR-OH8-ZV9-S4K
151.004126,-33.953385,4WN-P9E-KQC-SWW
151.004136,-33.953384,QYU-NV3-JGM-DNX
150.985651,-33.95962,99N-8QN-ZNE-W2C
150.985652,-33.959746,953-KGR-Y4A-8OS
150.985715,-33.959492,NDK-T1Z-NQ3-EF6
150.985677,-33.959451,DOY-F8B-DCK-P44
150.985434,-33.959349,CPM-BEQ-9S9-2DR
150.986762,-33.958607,U1B-588-VGT-KP2
150.985274,-33.958957,TK7-V9K-E4Q-QO9
151.004147,-33.953366,HDE-PMR-6BU-A3T
150.98665,-33.958537,1QB-AT5-H2Q-7MM
151.004149,-33.953381,8T8-97W-MHP-NYG
150.986568,-33.958399,ZPC-OBF-XV9-8ZQ
151.004157,-33.953379,VAJ-ZR1-J2N-XDP
150.986471,-33.958264,MO9-TXU-M7P-MUF
151.004187,-33.953375,769-QTS-QTF-6EQ
150.986373,-33.958168,4PR-DU1-YFS-8XR
151.004203,-33.953351,DNO-P19-YNQ-FRE
150.98628,-33.958073,OGM-GSY-A2J-O9G
151.00423,-33.953349,JSO-GE8-357-R9C
150.986196,-33.957941,N4N-PQS-5H5-QBH
151.004248,-33.953363,F4B-472-SU7-GXK
151.00426,-33.953348,ZCH-1HO-OYC-8YE
150.986107,-33.957858,KDU-P1X-HEE-685
151.004305,-33.953359,DSR-S63-RPE-7PA
150.985985,-33.95774,BMS-678-7KW-OPN
151.0044,-33.953324,NXM-UEH-BO3-8U1
150.985921,-33.957653,DRX-HA2-385-XVR
151.004422,-33.95333,SU6-DFB-O88-Z4N
150.985647,-33.957267,37D-3GO-NFK-63N
151.00443,-33.953302,CA9-6T6-NPG-CMP
150.984837,-33.958405,REO-MOJ-4OO-PVQ
151.004486,-33.953297,4S2-R1J-OCB-T2S
151.004521,-33.953296,TK2-RPN-GXQ-TEB
151.004561,-33.953287,XO8-ZWZ-RQV-OP3
150.985264,-33.956807,6YU-ANY-TJO-2VT
151.004572,-33.953287,7DX-6G1-MS7-RZZ
151.00459,-33.953283,9Y2-9YC-EW7-W6Y
150.984526,-33.958026,M18-1ZW-GR3-2O4
151.004614,-33.95328,2D6-GJQ-UPO-U2X
151.004644,-33.953279,7Q5-7O4-XPX-2SA
150.985643,-33.957083,GVR-MG5-WVF-HR3
150.984297,-33.9581,8XJ-VCD-ZXV-G1G
151.004692,-33.953268,A4S-66A-643-9F9
150.985667,-33.957062,9TG-4ZB-NGT-XUS
151.004765,-33.953265,XUM-E8A-7VX-HQQ
151.004777,-33.95326,CTM-8ZM-ZT5-B4X
150.985874,-33.956857,Z5M-YMV-FJD-69X
151.004785,-33.953263,S9S-V57-V3W-75U
150.986138,-33.956701,5YB-9UO-F28-4FS
151.004822,-33.953255,HHT-1J1-HO2-B63
150.986246,-33.956745,PWK-H1E-MMP-UXV
151.004853,-33.953251,6CO-OG7-UZM-FY2
150.984118,-33.958073,GEK-N8P-SFP-4R7
151.004867,-33.953254,FSJ-ARV-8TN-FCC
151.004881,-33.953257,P3O-F78-MPE-P6A
150.98652,-33.956486,14F-JZ9-VS3-5NQ
150.984051,-33.95811,Y6O-73M-CTZ-GEJ
151.004899,-33.953253,W62-3KW-RPX-4B7
150.986717,-33.95648,Z28-S62-PEV-FOQ
151.004915,-33.953246,ZZ2-EFP-VNA-FJD
151.005056,-33.953232,F4S-XR1-Q6B-GV4
151.005103,-33.953226,6J6-KSB-6BO-1PA
151.005156,-33.95323,O5O-KQW-K7Q-B3K
151.005239,-33.953212,9ET-CMT-1QD-F4A
150.983661,-33.958238,HRJ-DM9-5ZK-OPD
150.987956,-33.956486,875-EMJ-8AN-GA1
150.983581,-33.958508,G24-O2A-PC6-KTS
150.983553,-33.958518,HDS-CHU-8AB-ZM9
150.983531,-33.958523,EMG-ZYT-HF9-ZRH
150.983508,-33.958524,N18-RA8-O8K-OJC
150.983313,-33.958659,BQT-7CZ-VO8-B6M
150.987782,-33.958547,2BM-K79-G81-KPQ
150.987698,-33.95862,NS5-OXW-ZEK-UV6
150.987493,-33.958753,GOD-QYQ-8GW-OVY
150.987352,-33.958832,YOH-U7R-5Y7-W3Y
150.984827,-33.959069,1JY-8EP-MA9-4Q6
150.984584,-33.95935,M6V-DB8-9OH-6HC
150.984616,-33.95932,T6W-45M-EQC-J8P
150.985862,-33.959473,FHN-C5X-64K-T76
150.984693,-33.959217,XZW-CMS-FQY-TN1
150.985885,-33.9597,OBA-MET-EWN-S6F
150.984514,-33.959448,AAN-CVN-F8P-941
150.98593,-33.959628,SS3-Y97-WSQ-5O2
150.984392,-33.959573,X5M-93Z-HGZ-DNR
150.986129,-33.959427,YV9-O8D-O4B-1E5
150.984466,-33.959503,4ED-36B-KEA-JVM
150.986013,-33.959258,T1Q-V49-FGU-RQD
150.986074,-33.959138,2ZQ-FW5-1EP-MPR
150.986282,-33.958957,NNR-BWC-4YG-G6W
150.986246,-33.959356,AKB-V25-65Q-B5S
150.984227,-33.95955,NAH-8GJ-BXA-HWD
150.984402,-33.959365,D8Z-891-93H-2YX
150.984477,-33.959279,7BG-GP8-NFJ-PX5
150.984546,-33.959207,YTB-5B3-15O-NMV
150.984603,-33.959139,V1W-UCW-F5V-71R
150.984686,-33.959028,WNY-3G3-AMW-CJY
150.984764,-33.958934,VJD-B21-C3B-3T6
150.984043,-33.959779,EKU-PXO-DUU-Y61
150.983955,-33.959864,SGP-Q7T-YYC-N2O
150.983829,-33.960009,DR3-PTP-2QN-BNK
150.983754,-33.960093,ZCH-CPV-DY3-VRK
150.98365,-33.960221,EWT-TN8-BTS-GCR
150.983439,-33.960468,JCE-R15-B4V-KGO
150.983399,-33.96055,ASS-ET7-6JK-H6W
150.983311,-33.960678,OJ1-5QC-2GE-6HK
150.983296,-33.960716,4HP-UBB-V4R-E63
150.98324,-33.960808,GGJ-BY8-D44-VYD
150.983209,-33.960854,F8Z-A91-QJ1-J16
150.985915,-33.959725,PRX-B8P-ERP-AXA
150.985931,-33.959756,7PM-9UE-RJC-PO6
150.983431,-33.960743,8G4-CKM-37E-T7Q
150.985874,-33.959881,7K6-NY7-81T-2CY
150.983362,-33.960872,8PY-C55-8NK-98N
150.983336,-33.960914,JWS-XEC-KEE-A4Q
150.985546,-33.960116,1CD-KFY-G8D-6CW
150.985368,-33.960337,W37-MFX-N21-4HO
150.985194,-33.960511,UZD-5SF-XZ8-QRE
150.983183,-33.961195,4VP-PJB-2FE-H8O
150.984871,-33.961053,7QB-ZSV-ERD-H1Y
150.983151,-33.961249,BR3-621-S5C-SG4
150.984676,-33.961252,66S-QC9-ECX-9NO
150.983088,-33.961377,ROO-SZH-SEC-SBS
150.983029,-33.961472,COP-5OJ-FR3-FF4
150.984385,-33.961381,YAF-7TH-ETD-QUM
150.98449,-33.961254,82M-Y3M-A42-ODR
150.98469,-33.960996,CVK-496-U8E-FUV
150.984781,-33.960881,XEF-P35-616-571
150.984955,-33.960646,CSX-6EX-79S-A3Q
150.985177,-33.960363,F76-BON-9EK-J43
150.985198,-33.960344,JMN-ZM6-OV4-RFH
150.985319,-33.960181,NF4-Q1B-RXS-N3Y
150.981985,-33.960898,FU9-7DG-2XG-ZOO
150.982058,-33.96058,Z7J-WNP-D3D-EOA
150.982365,-33.960066,9JJ-CTH-WEF-UHQ
150.987579,-33.958904,29X-VUK-271-M4J
150.987675,-33.958852,QNJ-7UH-F79-X5Z
150.987715,-33.958825,DB7-D38-PYX-93W
150.987777,-33.958771,OW8-5NX-JV1-D6O
150.987829,-33.958719,H4H-7YS-11B-SPD
150.987928,-33.958647,Y5X-YJA-NFD-8RQ
150.9841,-33.964216,HP7-329-MSA-GZQ
150.987794,-33.958735,2F5-KW6-NS1-F9Z
150.984088,-33.964207,V5F-HYC-QR9-VD1
150.9841,-33.964273,WAD-QCH-R3U-MUK
150.98411,-33.964405,TTA-GAW-EE7-PG9
150.98419,-33.962465,FM3-VK1-MDH-42K
150.984263,-33.962516,AKV-FX8-KWZ-Y4E
150.984346,-33.962567,X6B-CHF-4KC-YXD
150.984796,-33.962892,EHA-XH5-286-EM5
150.98493,-33.962977,DJ4-EM2-Z2H-B5E
150.984997,-33.963035,RJK-Z1O-748-Y3V
150.987955,-33.958608,FNN-TCG-FB1-RSK
150.985553,-33.963419,1MQ-GEC-JQX-ANE
150.987938,-33.958586,NA1-Q8S-JZP-O58
150.988003,-33.95854,AJA-RQE-PXF-DJJ
150.985594,-33.963447,KEQ-PVA-BAC-6UV
150.982389,-33.959768,PT5-6TT-HBV-TUB
150.988039,-33.95851,EGY-QD4-VU3-JSV
150.98807,-33.9585,O7M-P7Y-ORM-N7K
150.988056,-33.958482,UJF-Q4D-ZJ2-QHK
150.982843,-33.959296,956-YPM-6ZJ-ST2
150.9881,-33.958487,A2G-P4F-FM6-G5M
150.988079,-33.958469,52S-4SO-JSJ-PES
150.986124,-33.963651,KEO-BJG-GN4-FZN
150.986001,-33.963556,CXH-HYZ-39D-8EB
150.985872,-33.963475,KZ3-11F-FUV-178
150.985825,-33.963439,FO4-8VX-O26-3NH
150.984206,-33.956764,K2U-FJB-TER-AJV
150.985726,-33.963368,X41-1JR-FNW-YKJ
150.984305,-33.95658,WRP-6CB-USO-BXP
150.98564,-33.963298,UPA-PJQ-ZS5-DF7
150.985577,-33.963259,ESE-ZVZ-22C-4Y9
150.985518,-33.963219,ZEO-HS7-DDB-CMA
150.985472,-33.963184,X4S-GJ6-OQT-ND5
150.982706,-33.959257,EKC-PB4-7X7-U4M
150.982696,-33.959277,JSR-OF8-ZPM-ZOQ
150.988054,-33.958499,K22-7ZC-RN6-E7V
150.988099,-33.958444,W64-FV2-Q4U-A7D
150.988124,-33.958467,P92-1BA-5WE-RAA
150.988148,-33.958427,SXD-WMF-1NN-GVR
150.988168,-33.958413,DMV-611-P2W-NVW
150.988146,-33.958451,GO5-FTG-8HM-G2B
150.988191,-33.958427,XMO-SJW-ESK-VZP
150.981829,-33.96079,ANV-6FA-U5A-R4Y
150.988136,-33.958444,W4J-PAK-HCB-EJ7
150.988203,-33.958421,8MG-G7K-8TF-O7X
150.988196,-33.958395,KRD-97Y-ECW-5AH
150.988228,-33.958398,QTK-Y29-A14-HNU
150.988215,-33.95838,W6E-MNV-6G9-HUQ
150.988229,-33.958368,ONM-73P-QQ2-J8C
150.981824,-33.960828,1RB-P9C-3AB-RSW
150.988249,-33.958379,SU4-9YT-RJY-O39
150.985441,-33.962389,B91-YZ6-5SZ-R7C
150.988246,-33.958347,ORA-OS1-59M-GQX
150.985535,-33.962259,ND5-XSV-H5X-SF3
150.985608,-33.962179,5F9-AFH-4P6-ZZP
150.981815,-33.960852,GYU-FFH-B22-O3F
150.988264,-33.958361,SM3-EFY-W22-N6G
150.985762,-33.961964,WKH-WHT-SBF-9BJ
150.988272,-33.958345,32P-FMP-X3J-C37
150.985857,-33.96185,EZQ-E65-ZFR-BYN
150.988265,-33.958325,ZO2-AAG-6DR-FN3
150.988292,-33.95833,GFU-JDZ-684-1Z2
150.988285,-33.958312,5S8-84C-7R5-NM5
150.986037,-33.961606,2UW-TK6-3D9-MMP
150.988311,-33.958314,383-VQV-W5T-W4A
150.988301,-33.958303,JU9-6D5-HUA-MO6
150.988325,-33.958301,ASH-M6D-KYP-VWW
150.986058,-33.961579,13X-PBG-7TH-RJO
150.986136,-33.96148,878-7YS-A2J-DV4
150.9883,-33.958288,5CE-4CM-B7G-9PE
150.986199,-33.961397,8WH-V42-NC5-1FA
150.988315,-33.958287,BR5-J57-OAW-EJ2
150.988339,-33.95829,4ZV-X8U-4OJ-T19
150.981776,-33.960963,5M9-ENR-RP7-7PD
150.988347,-33.958283,FVE-EYF-S2Q-C5B
150.988327,-33.958271,7DG-GN8-Z9Q-Z4H
150.981765,-33.960991,FJ2-5P7-MOB-BGS
150.988334,-33.958268,RFK-4NR-NS4-9B8
150.986538,-33.961181,6JY-TB8-FJA-2ZE
150.986512,-33.961213,PP9-F36-HJJ-381
150.988358,-33.958269,THP-SPR-AC3-ANY
150.98176,-33.96101,UVF-DOE-8T6-K3K
150.98836,-33.958248,2DX-VT3-NR4-QJC
150.986341,-33.961435,UFT-Y7B-DXJ-Q3G
150.981724,-33.961134,NDJ-3UN-M2D-Q82
150.9884005,-33.95821476,EE4-MC5-7TY-5EE
150.98629,-33.961489,SET-NS4-95A-XR7
150.98625,-33.96152,8DZ-T5P-94T-2CM
150.981717,-33.961155,7YG-R4R-PG4-JHE
150.986191,-33.961596,ETQ-5BR-7HG-CYW
150.986176,-33.961676,2FR-G2C-BCT-JQU
150.9884468,-33.95818194,FKJ-JEM-CXX-H2G
150.988474,-33.958153,XDQ-H4X-1GY-Q1P
150.981729,-33.961111,KRU-CP2-WQ8-2F5
150.985751,-33.962229,1CM-FT8-8A6-MRS
150.988504,-33.958114,JN4-945-OR5-JC3
150.985569,-33.962471,BAD-319-7BF-NQ6
150.981726,-33.961174,S8D-4H6-WQV-BNV
150.985531,-33.962508,7BJ-9QM-MU7-A5K
150.981714,-33.961191,K8G-759-57G-DN1
150.985451,-33.962609,SMP-AD9-OTS-VFY
150.985441,-33.962622,XKG-52N-QQ5-Y5Z
150.981735,-33.961192,FTK-FSG-SY8-JVF
150.988661,-33.957971,XDW-OJH-Q13-3JC
150.9887,-33.957953,J3W-X6N-S9C-SO2
150.981699,-33.961266,4AT-VBU-7ZH-HOJ
150.98873,-33.957921,8PZ-SQY-6KX-YDQ
150.985434,-33.962632,TU2-WEK-2CN-AQB
150.988758,-33.957898,J9D-MH9-6N9-QCA
150.981714,-33.961264,8O1-C3H-SNA-OTS
150.988786,-33.957884,61R-WMR-YXH-NXO
150.981688,-33.961324,9G6-2OQ-ZUG-BQT
150.988818,-33.957836,66C-GM5-89S-V7Z
150.985422,-33.962646,23F-7MA-TZW-KX9
150.98171,-33.961315,EGE-1YR-DMD-KDV
150.988857,-33.957824,NMH-VET-1R3-7M1
150.98525,-33.962859,TXN-4Z8-XRK-99U
150.988875,-33.957787,V6S-8P1-K2R-7E4
150.981617,-33.961317,H9A-FZB-QK2-25R
150.988926,-33.957744,4AP-6ZX-81W-TCA
150.981618,-33.961343,CKV-XDP-CYA-UBB
150.981621,-33.96136,CTH-RK5-B56-18G
150.98161,-33.961425,6S4-CDU-BWG-ME9
150.9889758,-33.95769194,WWP-UWP-WT8-VTU
150.988973,-33.957718,17J-B48-H5N-AVK
150.989065,-33.95765467,UGS-VAU-7X3-HQM
150.9890737,-33.95764522,6UE-HUO-8R5-HXN
150.9891012,-33.95761352,NAZ-MF7-COR-W46
150.989118,-33.957584,H9Z-MW6-1DM-762
150.989103,-33.95757,GCO-9R6-O2Z-MPT
150.989162,-33.957568,6YB-QW5-H3O-Q6B
150.989181,-33.95756,B6B-739-OTN-TSQ
150.9892,-33.957545,RUP-16E-HMN-43W
150.989187,-33.957507,JBP-EHD-EU7-PRE
150.989219,-33.957527,KRZ-TZZ-W66-99Q
150.989247,-33.957521,OVU-DKS-HHM-6N5
150.989199,-33.957488,JBN-X6B-E8C-1RM
150.989255,-33.957493,29O-G3Y-F72-RPJ
150.989244,-33.957464,ET6-M18-CFM-7U6
150.989286,-33.957474,9MW-AD6-AM1-2GJ
150.989272,-33.957477,OS2-4JU-C3H-JM8
150.989251,-33.957448,91F-9WN-6TH-R3B
150.989312,-33.957457,FEM-ZAY-83Y-UBP
150.989325,-33.957451,T7G-R7K-QEW-CB1
150.989349,-33.957414,B8K-TBU-WA9-DYC
150.989359,-33.957408,2AX-83E-NRE-OGK
150.986615,-33.963417,D7M-XDO-JRE-CAQ
150.986738,-33.963057,SBG-TZ5-N24-GEJ
150.986923,-33.962824,B16-OHW-2YA-EOQ
150.987094,-33.962606,TT6-PQD-GGG-7SA
150.98721,-33.962451,3TR-S3W-MTD-4A3
150.987323,-33.962306,K4P-CWG-685-2JY
150.987481,-33.96209,HQG-OUA-RQQ-EJV
150.988765,-33.962427,OBN-V3A-XER-UDC
150.988864,-33.962458,1C1-3OA-KZX-83M
150.988943,-33.962485,8FZ-JRU-9P8-X4A
150.98377,-33.96027,37D-4VN-BGE-M2X
150.98385,-33.960181,28F-U9Y-FM8-6MZ
150.983963,-33.960048,BQE-2YN-YD8-B24
150.988267,-33.962144,CSD-HNU-CEA-Z6J
150.988006,-33.962075,AXK-SJO-OXS-EJC
150.987847,-33.962005,QTX-BTV-6GO-TFD
150.987598,-33.961808,QAE-GD3-QZM-7TJ
150.989565,-33.957204,G7D-8FC-7JU-G8A
150.989579,-33.957196,RVD-68W-DK2-BRP
150.987465,-33.96164,3U9-8C9-8WX-4PM
150.989597,-33.957187,NBQ-2ES-JT4-31C
150.987352,-33.961512,ND5-XUE-TCR-DTE
150.989636,-33.957151,87O-1XP-CV9-MQE
150.98965,-33.95714,BSF-6B6-EJ3-J7P
150.989661,-33.957134,6K7-YMG-C7S-8ON
150.987267,-33.961402,Q3B-NXN-4B9-BFJ
150.989685,-33.957117,QHJ-U21-XQB-QJG
150.989697,-33.957107,P8F-NSG-5FS-M4P
150.987171,-33.961304,PYY-KZ2-1GM-WPW
150.989693,-33.95707568,9Q1-D3Z-2KA-DP8
150.9897098,-33.95707234,FYF-6W1-2KC-YO2
150.987092,-33.961226,RHG-5NU-HDY-JT8
150.98689,-33.960941,VHJ-XGO-NVQ-K7A
150.989841,-33.956978,SK9-POV-WMM-X9S
150.981803,-33.962916,5CQ-JJN-D1Z-67J
150.989835,-33.956958,5Y5-5CE-7M5-4ZE
150.989875,-33.956951,WPB-HBB-6A9-DYG
150.981792,-33.962883,HE2-GM6-4M9-NGO
150.989886,-33.956944,U83-J9B-WWB-3SB
150.981782,-33.96285,NCS-N45-8E2-6KV
150.989898,-33.956936,8KQ-O4B-XVB-PKT
150.98177,-33.962827,4HJ-MEH-RHJ-MC7
150.989905,-33.956933,TW9-J92-ZNO-1CK
150.981766,-33.962793,OEX-G4V-QFV-XAF
150.989914,-33.956929,57R-361-171-PHQ
150.981753,-33.962743,O5N-X6K-V73-RU3
150.989923,-33.956924,AZ1-NSA-G5D-6JP
150.989923,-33.956913,4SM-SA1-CYC-394
150.98174,-33.962706,RVZ-813-JPU-OSY
150.986935,-33.961218,9K8-KMQ-RC1-TW8
150.981743,-33.962702,8Y4-X8O-SJ4-ZGN
150.987064,-33.961372,BQN-Q7R-54K-H97
150.981727,-33.962625,1S7-SB8-6ER-E5P
150.989942,-33.956915,CDJ-MYE-YK1-1GG
150.987197,-33.961527,MM6-E4R-DFT-D8W
150.981727,-33.962608,CH1-HWN-7KD-SYQ
150.989956,-33.956912,XP7-9PR-818-TCA
150.987268,-33.961617,GH3-MX9-SHV-DP8
150.989958,-33.956899,SEO-Z22-BOR-RKJ
150.987331,-33.961701,BX8-WXG-CJX-GVW
150.9816172,-33.96237103,NDT-Y7N-JSN-CD3
150.989966,-33.956859,M6M-SPV-1EU-XGB
150.989985,-33.956873,36W-MJJ-FZ8-952
150.987444,-33.961837,UEO-91N-6RY-C1J
150.990013,-33.956891,SGN-1AP-655-QBU
150.981581,-33.962273,7MZ-JSW-ZZ5-U1B
150.990005,-33.956862,4XK-HJN-CMR-PV7
150.981566,-33.962246,KNQ-GUX-R5V-EEZ
150.990051,-33.956869,HMZ-MBJ-SA2-1UB
150.981587,-33.96219,7RO-2CR-247-M98
150.990084,-33.956829,ZNJ-YWR-87H-3TN
150.990121,-33.956795,7U3-Q7H-Z3V-77X
150.99016,-33.956771,B3P-JSS-4GS-GHT
150.981584,-33.962168,GW2-TW7-WN6-58B
150.981558,-33.962183,4Q5-9GB-E7C-5NM
150.9902,-33.956694,Q7W-RPK-KY4-AYD
150.981591,-33.962154,S9G-9S2-A3H-73F
150.990216,-33.956686,EQY-791-X4J-AJO
150.990224,-33.956706,XO3-HKO-VDO-Q14
150.990289,-33.956653,5UY-M3Y-P7O-KB6
150.990252,-33.956666,OU7-ER2-C5E-VYV
150.981563,-33.962115,9AM-ECY-DH5-JZG
150.990257,-33.956642,3YE-2N9-DDB-C24
150.981584,-33.962061,GY1-U91-Z7M-3PE
150.990348,-33.956625,T1P-AK3-7ZE-8OU
150.99031,-33.956611,82W-8CQ-7NH-BEX
150.981635,-33.962053,GZU-K98-KO1-Y9Q
150.990337,-33.956615,HY5-Z6Q-HBD-NVU
150.981612,-33.962024,K1O-44E-6QH-OP1
150.990363,-33.956635,HDC-WO1-OXX-SCW
150.990375,-33.956623,YFE-HCA-6V9-GQP
150.981613,-33.961977,AG8-E57-XHJ-71B
150.990353,-33.956585,YQN-K9K-KHM-QW9
150.981605,-33.961959,2EK-K4X-7ZM-EK5
150.981623,-33.961944,KGG-18O-SZF-CQ9
150.990503,-33.956518,4GP-DQD-29B-TJA
150.981625,-33.961922,RTB-RRD-1XF-QEO
150.990534,-33.956498,BG1-43R-46M-M3B
150.990596,-33.956493,KFA-QUO-CJR-OG1
150.990584,-33.956474,33D-NH1-ZMC-7S5
150.98164,-33.961926,ZRP-K1S-47M-NRF
150.990622,-33.956444,PGX-JGM-65B-YAN
150.98164,-33.961914,CDW-ZC9-ZNX-AB6
150.990649,-33.956422,HSV-9P9-B2V-GXC
150.990682,-33.956413,M25-3XC-D6R-R1E
150.981621,-33.961911,O9P-THU-K31-17D
150.990697,-33.956402,MBB-QD8-1K4-P6W
150.981638,-33.96187,PSP-A73-VC5-774
150.990717,-33.956385,S4D-YK1-3RT-YJY
150.981646,-33.961857,POE-OKD-2P2-HYW
150.990768,-33.956365,3W3-XC6-NNT-B7E
150.981629,-33.961846,65D-4PN-U8P-DE5
150.981649,-33.961841,YHZ-AP9-RQ4-JW6
150.981665,-33.961773,BSM-5QC-RFB-GN8
150.990869,-33.956289,HN5-F8D-CBP-CVB
150.991008,-33.956214,WS5-WC6-FRK-MVG
150.981644,-33.961772,98N-PEQ-NBG-HQX
150.991126,-33.956133,GP5-61U-9NW-VYY
150.981638,-33.961785,Y2M-D3R-5QF-6RA
150.991228,-33.956078,TOB-CFF-E6J-HOW
150.991296,-33.956035,43P-UNC-9B1-XUX
150.981622,-33.961766,14Z-VHF-W1F-VVD
150.991384,-33.955983,B5T-U1H-XWC-17G
150.991474,-33.955938,EYN-VQY-KZR-5Z9
150.991547,-33.955899,TFK-3QC-K8T-TW8
150.981663,-33.961747,DR2-5FO-Q4U-YF8
150.991657,-33.955846,4Y5-XRG-C7J-6W3
150.98164,-33.961735,F5V-RHA-5CK-YAF
150.992034,-33.955658,C3E-Q7C-7FD-2FZ
150.992282,-33.955538,XD9-KCA-UD3-DPE
150.981619,-33.961716,B3D-36H-89W-57W
150.992392,-33.955472,NWJ-TNM-TMV-43Q
150.981636,-33.961699,E78-A51-94K-41J
150.981635,-33.961646,YCK-B5H-ET5-HZD
150.992482,-33.955458,EXW-787-KUC-AXG
150.99253,-33.95543,AHN-642-T94-HWB
150.983532,-33.96225,XVE-QZ2-RZB-PR8
150.983337,-33.962507,MSD-Q95-8MA-8HY
150.983113,-33.961042,GRY-4U4-OMT-R4X
150.983025,-33.961181,G6B-MMA-NHA-SFW
150.982924,-33.961335,F1G-GO4-A6Z-YN4
150.99127,-33.959644,4F3-92S-PEJ-KZO
150.991126,-33.959621,AQZ-DK7-G1G-DT1
150.990977,-33.959606,99F-63F-71D-ZDR
150.990539,-33.959551,WDZ-36E-UVS-E5B
150.99041,-33.959739,Z7C-NKB-B9M-VO2
150.990352,-33.960019,K3J-OFC-8HE-8K3
150.990334,-33.960142,1VD-NV4-SKD-HKB
150.990318,-33.960237,2KB-TGH-CKG-YH7
150.993182,-33.955579,ABA-K3N-7J6-AH5
150.990297,-33.960344,3JK-KRA-V8Y-2F8
150.993149,-33.955598,EWQ-JDA-GT2-GJW
150.993107,-33.955615,M2R-917-TKY-6HE
150.990272,-33.960484,SMV-2R4-TD3-QUB
150.99308,-33.955632,8AP-FUF-D2M-KSD
150.993051,-33.95565,ZKJ-2R2-MV5-GZQ
150.990232,-33.960704,GYK-CSG-O6V-AER
150.993022,-33.955665,ZMQ-8DA-28Q-PAX
150.993007,-33.955673,YGJ-POK-BKD-WG7
150.990208,-33.960876,BFH-ES7-STC-PSQ
150.992995,-33.95568,AYP-D2F-MUQ-EA4
150.99298,-33.955687,2M5-6UJ-D59-YXX
150.990174,-33.960972,WM7-1UX-W7B-W6J
150.992969,-33.955697,JJ7-VS2-V4J-59U
150.990172,-33.961094,7RY-O6R-KXK-7A2
150.992957,-33.955708,GZS-VH7-9BJ-6KO
150.990431,-33.961259,JXG-AOJ-5MN-D7Z
150.990695,-33.96149,QFX-Y6X-FAB-JCH
150.990692,-33.961525,5O3-SRA-B1J-Q8B
150.989081,-33.959563,SSX-CO4-WWE-PDO
150.990691,-33.961556,DP9-OPC-4VY-FWF
150.990686,-33.961613,ZSG-TA4-M31-FKE
150.990678,-33.961645,ZM4-AQQ-KVM-KFN
150.99068,-33.961663,S1F-8X9-G61-H2R
150.989013,-33.959813,9FX-MS5-8RS-TEQ
150.98896,-33.959975,ZD1-YBB-PHH-EM3
150.988982,-33.960074,XXF-7BW-YGD-VCQ
150.990448,-33.961999,O7E-1GZ-RDP-CSR
150.990424,-33.962008,8GT-1VM-HQB-7OA
150.990179,-33.959492,RZR-A8H-G8H-4OY
150.989097,-33.96018,A66-R1O-5PZ-PM4
150.990397,-33.962002,JGN-A1H-RFE-7HU
150.989793,-33.959455,WWE-YBC-HUM-Z3T
150.989093,-33.960339,BGP-E1X-C2Q-E3F
150.990381,-33.962028,RYS-8F4-R4G-D9N
150.989631,-33.959434,BAH-SAO-CW7-8OT
150.988915,-33.960332,ZCG-94E-J7B-SKR
150.98958,-33.959424,CFH-GPP-5MG-MBB
150.988901,-33.960423,9BC-Y53-AWV-4XP
150.990812,-33.962054,ETO-844-MX8-EBA
150.989077,-33.960425,X95-2DB-C1U-CDR
150.990795,-33.961951,81T-JQF-ZEA-86J
150.990765,-33.961821,P4X-R71-C1U-4K1
150.989056,-33.960558,4FB-TF2-5DH-PTP
150.989424,-33.959397,3AB-JW2-3C6-C9P
150.988903,-33.960555,Q32-BR9-B69-9BN
150.990862,-33.961754,OVH-38T-M5T-KQV
150.988864,-33.960701,35W-8PU-PAQ-8S1
150.988848,-33.960774,JBD-Y1U-MQK-J1V
150.991065,-33.961664,6R1-WQO-1B5-3OX
150.987575,-33.959785,T7E-VKH-CEV-4YA
150.987602,-33.959823,6HT-MEA-923-1JF
150.991284,-33.961546,FYM-JW7-AFJ-Q1J
150.987664,-33.959888,S3S-K7S-AA5-XYN
150.988967,-33.960946,FO5-8S8-UFR-OBC
150.98777,-33.960021,AAO-YWZ-HOU-9K1
150.98882,-33.960903,49A-1BV-GSJ-DGP
150.988781,-33.961035,R6G-E5A-AO7-MS1
150.987869,-33.960065,N3R-MSS-7YM-JFY
150.988922,-33.961066,CBW-4SS-75O-HZE
150.987977,-33.960082,BO1-COS-S3Q-4WP
150.988763,-33.961245,V35-WR4-SEP-FJ3
150.988057,-33.960107,PUS-7DC-91X-47F
150.988808,-33.96131,F38-ERR-TN1-11W
150.988062,-33.960243,CEU-S9B-95R-3BW
150.988869,-33.961402,B76-78F-6VN-ZE1
150.989042,-33.961586,DQ4-NGP-KN3-RO6
150.987817,-33.960227,FY2-5O2-Q6E-NRK
150.989222,-33.961603,1VX-6D9-UAF-VES
150.987763,-33.960144,M42-966-UXV-3WQ
150.987724,-33.960116,CG6-3P5-A1C-DJ4
150.987664,-33.960043,DOP-FUS-H42-XT5
150.987602,-33.959962,XEW-RKR-CPE-78U
150.986477,-33.960472,ZGZ-64M-PBA-TTJ
150.986584,-33.960377,JNF-FEQ-ZZZ-8UU
150.986687,-33.96031,DXD-9P2-YUE-ZRN
150.987307,-33.959769,COF-79F-5R2-A71
150.98741,-33.959659,75U-4AJ-SMW-45V
150.987488,-33.959602,5W2-MEG-54Y-SX9
150.987597,-33.959518,JFE-OZD-2PY-J3H
150.987689,-33.959429,GM4-9VF-G65-NAY
150.990873,-33.961274,3NP-URJ-H1S-K8Y
150.990901,-33.961278,J1S-GFP-7J1-13D
150.98777,-33.959368,PRM-G16-F1A-NQR
150.990928,-33.961278,KJP-Q98-CEM-9P6
150.987833,-33.959317,DVV-VOR-4XO-EE3
150.98789,-33.959264,PBQ-5U4-773-C2X
150.987961,-33.95921,FJJ-4UB-PEG-S9C
150.99122,-33.961239,8JQ-1RJ-J24-WZO
150.991249,-33.961043,94U-PXJ-USH-V99
150.991275,-33.960897,F4F-PKH-Y6F-OBY
150.989112,-33.961724,FYC-QQW-F97-1GZ
150.989179,-33.961795,17E-5EH-V93-4N3
150.99132,-33.960586,1CZ-F2U-D1H-RB5
150.991356,-33.960455,ZN4-WJ1-AHV-JFT
150.989608,-33.9593,TFM-HJ2-DFA-GM6
150.989403,-33.96226,JT1-3H2-6QH-2QT
150.991368,-33.960338,26D-GGO-UGK-23J
150.991384,-33.960249,WPQ-ATF-M3M-3OE
150.989892,-33.959335,23F-SS3-P16-KM5
150.991444,-33.959957,ZP1-J6M-672-2V4
150.989288,-33.962059,9MO-QVX-DYZ-ORF
150.990228,-33.959377,QU2-GVJ-HXJ-W3G
150.989274,-33.962135,9M8-D9N-OKN-6V9
150.989268,-33.962261,BUT-F43-KAD-4CF
150.991451,-33.959894,A2R-W5X-A4X-X82
150.989249,-33.962318,H5N-VHO-Z46-ZW7
150.99148,-33.959806,77H-KSQ-GRP-2H4
150.989206,-33.962408,H3O-MCA-KCF-376
150.989419,-33.962365,3QT-OEN-HDX-NCS
150.991552,-33.960142,9RN-GEC-PB6-166
150.991528,-33.960265,B24-54D-ZHX-9EH
150.99204,-33.959606,WWD-HRW-YRD-6YG
150.991515,-33.960365,MJN-3EB-HZR-MNT
150.991492,-33.960519,7KJ-D2K-T4B-7R8
150.991799,-33.964709,3CE-3CQ-EXJ-PPD
150.991404,-33.96094,OOS-4KJ-DW8-QTM
150.990973,-33.963957,MA7-JFK-AEB-R6X
150.991388,-33.961032,MQE-AVV-S2Y-NO4
150.992302,-33.964927,NKN-NF5-4R6-SD9
150.991359,-33.96118,QME-C62-5C1-GDA
150.992353,-33.96463,37E-943-N88-9MR
150.99238,-33.964444,J64-NKG-PBF-3OR
150.991346,-33.961325,PUK-9A9-17M-79C
150.992402,-33.964327,645-MQ3-CMC-JFX
150.992416,-33.964272,M9D-374-1CB-HM2
150.99061,-33.961397,XM2-H51-JWV-7GK
150.99251,-33.96379,KSW-877-D4F-97G
150.99046,-33.961375,HOW-H2B-DTP-DU4
150.990355,-33.961359,3HR-CE3-RAE-Z55
150.99254,-33.963583,C5K-7PX-717-GWQ
150.992176,-33.963384,VOY-Z1Z-Z47-E2G
150.992256,-33.963299,E5B-TCP-J85-GR7
150.99203,-33.963257,GVX-DG5-HFP-KB2
150.99199,-33.963363,2SY-65A-XUE-B3B
150.990182,-33.961337,QJW-O56-HGY-G53
150.989999,-33.961168,K4G-EGN-M6K-DZV
150.990015,-33.961067,DFG-QTD-91A-B4O
150.99003,-33.960944,ZMM-X1T-2OS-G89
150.992506,-33.967519,5X2-YYH-WFA-2GB
150.990066,-33.96079,QDE-FQN-QJZ-SJH
150.991934,-33.963238,39P-SCV-BEZ-4WO
150.990099,-33.960678,CF4-4VH-UDJ-A3Y
150.991881,-33.963343,59G-1B1-61X-2AG
150.990113,-33.960556,JFE-Y2Q-XV1-G1M
150.991806,-33.963228,6SC-CVW-BN6-BUV
150.991667,-33.96331,FYJ-NNQ-F5M-NSB
150.991641,-33.963197,DFF-4W2-EBV-ZBA
150.99013,-33.960424,5HJ-PO6-HVF-9BP
150.991262,-33.963223,75E-PO6-YNY-SZF
150.991281,-33.963112,NPT-WT2-FBT-U97
150.990196,-33.960112,4RN-41Q-HUY-NTR
150.991157,-33.963135,3O1-9WN-XG8-KUB
150.990208,-33.960001,ME8-YBX-4J6-3QY
150.991109,-33.963019,V52-8G2-15N-SE4
150.991075,-33.96293,V6K-7AD-7V7-QOH
150.990272,-33.959693,QMV-9HW-U2J-Y24
150.99126,-33.962849,MKH-9E2-WBD-OGB
150.99233,-33.960099,Q4Q-SCU-UMJ-E3H
150.992402,-33.95979,NF8-M8M-ZBX-CHY
150.992431,-33.95964,O24-T1N-BDU-WQH
150.992646,-33.962976,QEZ-SZH-6VX-APU
150.992667,-33.96289,2MN-KA2-KJF-JYA
150.992726,-33.962626,7JN-BCA-Q66-C4X
150.992733,-33.962546,4Q4-4OF-33D-DN3
150.992781,-33.962355,3Z3-TWG-GVE-WY5
150.992859,-33.96785,ZYO-J5N-VAH-B6H
150.992783,-33.962265,UJ4-SQR-3EJ-YBQ
150.99283,-33.96201,WD2-7BC-E3F-1HA
150.992819,-33.962145,Y48-MMM-V2P-CD4
150.99316,-33.968149,GG5-YK8-JOO-X9V
150.993529,-33.968505,KUG-W6N-ZHR-FVT
150.993729,-33.968357,7DX-7NP-N19-QX2
150.99332,-33.968174,9DM-FO9-3D2-BTZ
150.993131,-33.967983,MBF-XRR-XZV-YGT
150.9930447,-33.96788573,AUM-JK8-HWP-GKW
150.992923,-33.967545,C98-4UB-QAD-JNE
150.993253,-33.967179,G3C-D6J-1W2-TUS
150.992992,-33.967376,XAA-MWQ-Q2B-8CK
150.992622,-33.96764,3JS-ZRA-3NB-ONA
150.992656,-33.961198,VP2-NZA-DCR-BOP
150.992615,-33.961178,GSN-EH4-ZAC-GGX
150.992436,-33.961077,99G-OWV-RX6-8OU
150.992404,-33.961055,4RR-BF5-U84-5MY
150.990698,-33.964061,N22-E9Y-H9G-42X
150.990717,-33.96418,2EU-E6J-DMD-TY7
150.990586,-33.96414,A8O-YYZ-J1T-GG5
150.990571,-33.96429,76W-P2F-7DN-Z4V
150.990483,-33.964355,DHV-WR4-S8P-UGK
150.990413,-33.964418,CJS-1QQ-OFG-VO8
150.990268,-33.964386,88K-WW7-KJ6-BHE
150.990241,-33.964528,6GB-54W-5X3-6MK
150.990174,-33.964575,91F-MHQ-RF8-VM5
150.990005,-33.964696,KST-YAX-ZWV-AP4
150.991625,-33.966057,75T-34J-EWJ-HM1
150.989965,-33.964793,K6D-ZSY-529-XEN
150.990057,-33.964904,GUK-QJ8-EYD-KDX
150.992715,-33.95862,XEV-YNB-BR4-2Z1
150.992435,-33.966806,289-QWK-VNB-QEA
150.992516,-33.967005,CVB-CEK-WN8-H9R
150.992869,-33.958633,SBN-GZY-C92-3X4
150.992403,-33.967039,KT5-W2F-H2V-9BG
150.992526,-33.967339,7C8-7V8-Z2C-PEC
150.991326,-33.965774,1S8-5DX-WHR-UM5
150.99694,-33.966667,VMS-EC2-H92-S4M
150.993714,-33.958632,25C-MDJ-3QE-CXC
150.99685,-33.966742,XM4-5OE-TQ4-K7E
150.996813,-33.966642,57H-6MF-EGQ-3DT
150.9937,-33.958746,1GQ-ZYT-KRX-1EO
150.996444,-33.966599,BO6-UGN-6ZP-XS2
150.993553,-33.958725,N9N-XRA-FAN-EVP
150.996554,-33.96673,VJX-OXO-HPF-RKX
150.990521,-33.965442,1BM-1AN-YWO-PPO
150.993421,-33.958708,AE4-VAZ-APC-9YW
150.993269,-33.9587,1HZ-UO3-6PP-RYS
150.990173,-33.96515,BFF-163-D7M-WPS
150.996306,-33.966575,XMC-NEP-FH1-Q4H
150.99313,-33.958668,X4Q-UCU-CF9-EF6
150.996261,-33.966704,NR3-Z2X-Y39-G4S
150.996126,-33.96669,CNQ-MWM-VAR-KBQ
150.993845,-33.958767,VCR-P5P-U66-BGP
150.989749,-33.964794,KN6-2G2-F8C-FS7
150.994082,-33.958792,MRX-9B1-4QO-OAV
150.99593,-33.966658,HN5-8KM-WFW-TVR
150.995885,-33.966652,WFC-49R-31P-PQS
150.995854,-33.966651,YB3-MX8-3AK-2NY
150.994207,-33.958817,VYH-FQK-3PM-MVF
150.995904,-33.966536,F94-H16-AAX-ADP
150.995766,-33.966524,SKX-HB9-VJJ-XRV
150.995728,-33.966631,RZF-PO5-5O3-5CD
150.994337,-33.95883,U5P-V54-MQS-OG4
150.994455,-33.958844,NWW-TMQ-MOP-4H4
150.995658,-33.966495,DG6-MNK-XDC-EDC
150.995583,-33.966617,BPB-HAE-8RQ-6E7
150.994602,-33.958864,F1K-6K3-CXF-YOR
150.995335,-33.966583,FPT-NCX-24E-5J3
150.994745,-33.958877,NCK-OJ9-O5W-6Z7
150.995322,-33.966462,7X3-6K2-12E-72C
150.994943,-33.958903,SJ1-22K-M5G-HER
150.995382,-33.96647,6VD-DXJ-TN2-CQY
150.995122,-33.95893,P85-734-Z13-4RP
150.995225,-33.966445,4S2-BZN-694-5FB
150.995224,-33.966572,NJA-PZR-3WZ-U2R
150.995285,-33.958949,2PQ-Z59-UYB-QXP
150.994956,-33.966522,JBE-NPU-8JW-33P
150.995422,-33.958972,9XF-SN2-DAN-BWZ
150.995546,-33.959002,RE4-D6W-1ZD-KRK
150.994995,-33.958803,M4J-183-UC1-KU6
150.995392,-33.958601,H3Y-34Q-8ZF-UO6
150.996027,-33.956117,QGW-115-K4E-QT4
150.995794,-33.955905,41H-CF6-5XQ-KH2
150.995683,-33.955894,HQE-1BG-R2T-G2V
150.995391,-33.955859,84F-WC8-JZ6-UMF
150.99588,-33.956093,SXN-E8D-GV1-WFG
150.995826,-33.95638,DZK-HDW-BPR-DS7
150.995796,-33.956547,KZH-R4W-VTO-98T
150.995777,-33.956665,617-Z83-N2O-3RZ
150.995747,-33.956774,9E1-NW8-QME-AJB
150.995732,-33.956904,JS7-Z46-17F-8UM
150.995706,-33.95704,51S-JC9-NRD-97R
150.995694,-33.957107,QH8-9GW-NT1-QDO
150.995627,-33.957529,OB3-YCT-SCT-W5R
150.995631,-33.957612,Z5R-MZJ-RK8-ZKA
150.996172,-33.96656,BPQ-V7W-256-P3J
150.995623,-33.957654,GJV-FX6-T5J-FAB
150.995097,-33.966426,KVN-4QR-FE3-1H6
150.9949659,-33.966417,YSV-NPB-W3Q-XGO
150.994836,-33.966406,MWN-NT2-HDT-DDB
150.995558,-33.958152,XWS-EBN-DZA-3OP
150.994684,-33.966379,QZQ-1J5-3DD-225
150.994875,-33.966519,M6C-DB3-9QR-GPV
150.995558,-33.958577,YMP-BQY-HW4-UKQ
150.994775,-33.966516,8FN-PH7-FT7-9S9
150.995513,-33.95869,KT1-2XO-SK8-EGG
150.99468,-33.966503,XUY-SHK-1GA-58P
150.995472,-33.958781,GEZ-KEB-96H-GXU
150.994458,-33.966478,XXH-PSQ-1Y1-3FN
150.994326,-33.966332,YHA-7U4-JY9-5UG
150.993,-33.964375,KC5-QHF-86A-CSA
150.995693,-33.958175,PN9-SGU-AHH-VHH
150.993109,-33.964391,8NG-CB3-51O-JVB
150.993346,-33.964432,6MM-G2N-75V-UJA
150.995727,-33.958044,OCG-B35-AJR-9QW
150.993707,-33.964509,YUS-568-T61-HRY
150.994293,-33.966447,JAR-FRB-THO-8MH
150.995721,-33.95792,277-KZA-KDT-Q72
150.994017,-33.964548,TE5-BX4-QC1-BOO
150.995738,-33.957801,XKD-JVE-BKQ-POW
150.994265,-33.964598,FOO-AU7-5B9-VBT
150.994043,-33.966289,DH4-6TQ-WGQ-NA1
150.995748,-33.957686,ERR-YNT-DKD-DFV
150.994022,-33.964459,792-T75-WOD-OQ3
150.995763,-33.957555,XCC-DSZ-P9T-R2V
150.993925,-33.964444,M4G-NK7-4WC-96J
150.993876,-33.966284,7E7-PQ5-A3U-2K3
150.995789,-33.957423,XAE-A5Y-DCB-ZCC
150.993677,-33.964419,1PO-1HA-7G3-8UT
150.993813,-33.966274,5KN-7JQ-W81-YHR
150.995796,-33.957312,9JE-246-JOQ-MCA
150.99312,-33.964305,A1J-4EN-X4F-HD9
150.995872,-33.956933,S6M-3M9-PK8-W2Z
150.995888,-33.956804,GYC-EOP-M4J-HP9
150.992399,-33.965148,ZP1-KDH-874-DUC
150.995912,-33.956677,B55-FOE-E3A-FS3
150.992394,-33.965192,XTQ-OXR-VMK-9XS
150.993713,-33.966319,352-YXD-55F-ZYG
150.995936,-33.956587,KKQ-OGC-EOD-8JN
150.993721,-33.966261,1JZ-1EK-5ZG-JQN
150.995975,-33.956292,GUH-V3Q-28X-RCG
150.99264,-33.965513,DJC-TFK-KJ2-S96
150.993539,-33.966253,GHD-X3E-FD6-TVV
150.993558,-33.966305,M5K-WT1-T7F-BW2
150.992762,-33.965653,XZK-XD3-NKH-DCY
150.993613,-33.966347,VD8-1F3-BST-1GJ
150.992795,-33.965683,KT1-KEW-UTB-5W8
150.993665,-33.966307,R3Q-3E3-HN1-WNP
150.995678,-33.958937,CT9-VRN-MZ3-ROK
150.99367,-33.966338,XNX-6K4-3XP-OED
150.992832,-33.965708,NPU-CFN-SHC-6U8
150.996086,-33.959183,57Z-SGM-8R2-X5R
150.996098,-33.959293,PM6-FWP-2DO-BD8
150.996084,-33.959424,U2W-TWT-BRR-9KY
150.99608,-33.959554,E1R-8C5-ZBK-MVJ
150.993185,-33.966039,4P8-O22-RW5-VFW
150.996089,-33.959664,VNS-PMB-YYK-RM6
150.993662,-33.966705,OM6-R9W-OAA-VJD
150.99608,-33.959811,95W-88P-PHX-TRV
150.993652,-33.966753,C7A-VMX-2DM-EQA
150.996068,-33.959934,15D-55U-52D-QJH
150.993588,-33.966624,7Y2-E3G-6U6-CD5
150.996071,-33.960045,Y51-HJ1-H39-3EM
150.99341,-33.966455,AK4-1WB-J97-BJ5
150.993595,-33.966708,WM6-8HC-BZZ-R7S
150.996071,-33.960313,AJV-E7F-E6J-2M8
150.995885,-33.960813,HPF-2W7-7J2-5FG
150.992475,-33.96556,HVW-YHU-QYR-A2W
150.991979,-33.9651,3OH-XSW-7BJ-C7M
150.995914,-33.960643,4FQ-A11-EB5-328
150.995918,-33.960613,CKQ-XF9-ZSE-K8Z
150.995932,-33.960545,NT5-FZ4-BRU-SMJ
150.995944,-33.960292,T15-4SO-3K6-164
150.992685,-33.963663,TM3-PMU-7QW-ZE7
150.995964,-33.960047,OX7-4FQ-G6Y-Q36
150.995945,-33.959921,KH5-MQN-J9Y-QPD
150.992689,-33.963634,K5N-AEA-VQQ-XMO
150.992707,-33.963518,W7B-CMN-Z2K-E7T
150.995959,-33.959769,59G-AKK-YJB-H59
150.992748,-33.963274,QZ5-VN7-5NO-8PB
150.995974,-33.959524,MM1-6GV-7R8-DEW
150.995765,-33.959059,9ZM-YWO-BFK-F6N
150.992766,-33.963061,6G1-YOU-1AP-14C
150.997075,-33.966362,51J-9RR-8TT-1VQ
150.992812,-33.962904,56Q-U55-WPT-WJT
150.992848,-33.962783,A69-GHO-WSK-EJ1
150.992847,-33.962761,OGH-2A1-FRG-M9K
150.992879,-33.962547,P36-N4U-CWK-4X8
150.997216,-33.966374,WMP-91S-VCG-XCP
150.99723,-33.966277,NYQ-V13-OPM-QTE
150.997265,-33.966155,9ME-8C7-A12-9EJ
150.993044,-33.961682,3QQ-XWZ-HC9-53T
150.993065,-33.961539,2CQ-ER7-EDA-A5D
150.997074,-33.961126,VQG-2KZ-RUD-R6D
150.992907,-33.961239,AT7-PWU-RHJ-KGG
150.997283,-33.966007,W27-576-RQW-48B
150.996957,-33.961003,SFT-XON-ERE-ON8
150.993047,-33.961324,6SW-NN5-ZFW-YPF
150.997152,-33.965926,5AF-WZ2-E74-OER
150.99697,-33.960901,FCU-AMN-VKH-HYO
150.993508,-33.961408,QD5-2FR-GYA-E8H
150.993682,-33.961418,91Z-UFT-NGN-U5A
150.996998,-33.960799,H84-9UM-3HY-CEU
150.997193,-33.965666,BJE-TBS-AQ1-AK5
150.994053,-33.961462,SEN-F5P-CNF-8KV
150.997036,-33.960568,A5W-OVZ-A9X-BC9
150.997202,-33.965595,4XY-QSP-WRF-BZF
150.994224,-33.961494,ZED-JZJ-5YY-FCV
150.997211,-33.965537,3RZ-ATT-J5Y-PY2
150.994412,-33.961513,WHB-9SG-EYC-K15
150.99722,-33.965459,M79-8NK-86M-52W
150.994598,-33.961541,Q5G-168-RME-586
150.997238,-33.965373,ZFQ-ZY1-8NH-FG5
150.997064,-33.960292,HRR-1FR-86W-S7U
150.994726,-33.961547,5AO-8C7-P93-JPJ
150.997051,-33.960181,94B-QFV-DX8-UUX
150.99727,-33.965222,KV2-HSE-9AF-7QX
150.994912,-33.961655,8M8-TEU-V8B-QD7
150.997413,-33.965308,KDB-XBT-HES-TM5
150.997069,-33.959927,C11-SCQ-A8X-P27
150.994415,-33.961609,SD4-SDZ-AU8-PSY
150.994327,-33.961948,OTD-28A-6O6-W7D
150.9972,-33.959807,7YM-T3M-ZAA-EC7
150.994559,-33.961968,X5Z-DDN-KTC-JY2
150.997193,-33.959946,F1T-R83-J9M-HR6
150.9941367,-33.96206014,1OA-XCT-5TK-A2B
150.997196,-33.960064,Z6C-T31-JTA-E91
150.994085,-33.961919,QDS-5GJ-BMP-35S
150.994143,-33.961734,D8M-BQE-BN6-A6M
150.997176,-33.960337,961-51K-C1O-YGA
150.997176,-33.960425,WSE-D41-2K4-M12
150.993847,-33.961534,78V-NX2-EMU-O9A
150.993394,-33.96148,HY9-VYB-O8R-51G
150.997161,-33.960699,GMM-1OO-RVV-3CR
150.997146,-33.960789,K9J-ATJ-FRB-CRG
150.99329,-33.961468,T25-P83-SNA-QQ7
150.997133,-33.960881,ATE-Z2R-N11-N87
150.997594,-33.964403,X6T-5VV-AZ9-FKZ
150.997095,-33.959278,1EX-ATY-5WO-5BN
150.997462,-33.964214,Y76-XAM-M9S-WYQ
150.997088,-33.959422,NBH-OGM-NJU-AJF
150.997468,-33.964119,YHH-6YB-ARK-2QA
150.997506,-33.964003,QBR-HQE-BTR-O6G
150.997091,-33.959541,7FN-GMF-A8R-GPO
150.997526,-33.963879,RQK-AH2-BEC-NHB
150.997078,-33.959674,DVC-7AY-YXA-Z51
150.997562,-33.963582,MWG-333-68M-66J
150.997734,-33.963634,C9W-74E-S48-J1R
150.997216,-33.959715,OSF-7O7-MMW-S9G
150.997687,-33.96376,RRY-3B6-KYQ-N4Q
150.997679,-33.963902,H13-C4H-JRC-KNU
150.997218,-33.959542,KCA-FK2-674-UFQ
150.99762,-33.964095,CMO-KC9-5VE-7T5
150.997611,-33.96422,FRW-PGU-T2B-WO9
150.997218,-33.959431,2XK-WE5-UE2-8RN
150.997609,-33.963451,OQX-NX9-PK9-BWW
150.997652,-33.963287,AQZ-QEW-4FE-FTQ
150.997212,-33.959298,943-FEB-WDF-6G1
150.997662,-33.96316,3S1-G2N-3ZG-39S
150.997833,-33.963052,KM4-XXB-PCP-QM2
150.997246,-33.959022,JPG-78N-PJQ-217
150.997855,-33.9629,YCX-6AB-TH5-BJX
150.997257,-33.958939,D4B-2J8-4MJ-KZX
150.997676,-33.962951,A6C-GG1-BB7-UFK
150.997695,-33.962883,Q7S-Y26-KWJ-7VG
150.997721,-33.962694,JSR-RPC-VEA-646
150.997702,-33.962805,DWE-B9A-ZDX-WO6
150.997885,-33.962774,E48-EC7-PMT-7XC
150.997889,-33.962606,OCT-2JH-MP5-AMX
150.997919,-33.96251,2R3-EHW-68N-P7C
150.997763,-33.962607,56P-GD6-8JF-CW1
150.997781,-33.962475,9HN-JV6-MWE-C4K
150.997955,-33.962369,FTB-1Q8-5FV-KYB
150.997836,-33.962215,BP8-CAC-772-U9K
150.997845,-33.962089,7RX-SZF-UWG-T77
150.997987,-33.962226,JSZ-69B-MTQ-FG5
150.997999,-33.962094,F14-W9B-AUY-TH6
150.992897,-33.959508,JMN-HW4-HN8-VB4
150.99309,-33.959533,YJV-9SR-HRP-J5K
150.993217,-33.959555,VYQ-OYA-A73-GD9
150.993437,-33.959575,CRG-52R-DMV-F48
150.994232,-33.959682,28Q-HFX-CB1-XWD
150.994277,-33.959684,26O-J5E-RU1-BHZ
150.994593,-33.959715,Q8O-14D-V6Q-J1Z
150.99481,-33.95971,GOB-RAR-FKO-QTY
150.994878,-33.959826,ETX-U34-4B7-S84
150.994951,-33.960065,YHF-QZR-X84-PDM
150.994788,-33.959876,GAF-FBW-BDW-J9O
150.994606,-33.959823,917-V7D-1VT-R3G
150.994358,-33.959783,NXO-MCF-4GV-5C7
150.99404,-33.959753,SP1-QRM-JRP-GR4
150.993935,-33.959731,HJZ-QC4-91H-MVG
150.993776,-33.959717,2Q4-2KR-6SK-E24
150.993668,-33.959702,CKX-S4M-HYB-2HG
150.993585,-33.959691,5AJ-7F9-1KK-PJU
150.993412,-33.959666,HZ8-W68-UM5-WW6
150.9932794,-33.95964804,68N-P2A-PXN-R9P
150.993076,-33.959627,6YM-Y97-Z1J-E56
150.992589,-33.959569,KZ3-EW7-9YP-JCZ
150.997239,-33.958214,A3P-QVK-QWJ-FD5
150.997228,-33.958322,U7P-PGY-BAR-PYW
150.997162,-33.9587,PGG-O5W-EOC-2DF
150.99712,-33.95902,PH3-G7Q-VW2-P82
150.997109,-33.959164,ZH7-EAD-FBW-JP5
150.997281,-33.958818,TSY-PPJ-9GF-ZRC
150.997299,-33.958714,AZT-K2Q-V4U-998
150.99731,-33.958598,UU9-GWD-HF7-3B9
150.997343,-33.958498,MAA-ZZ2-PXJ-385
150.997367,-33.95838,1MT-RE8-3BD-H9Q
150.997378,-33.958343,9QW-HOQ-7TY-HNW
150.9974094,-33.95813466,D2Z-KFR-RTC-CDZ
150.997427,-33.958029,FFK-C8D-2EN-K7S
150.997434,-33.957913,P7D-FQK-J8W-JPE
150.997459,-33.957808,3VC-56O-HPZ-8PC
150.992466,-33.960435,YK3-3RF-QHU-V65
150.99751,-33.957597,VKD-S86-UQ7-D6U
150.99282,-33.960468,BM5-84C-4PF-DF9
150.997525,-33.957455,S1G-JXF-HNS-O8Q
150.993007,-33.96049,W1N-63C-2CH-8X6
150.993206,-33.960513,1ZO-27E-COP-AZD
150.997539,-33.957369,NRC-BV1-Q3E-KCD
150.993346,-33.960541,U5T-JJS-U93-KRV
150.997558,-33.957235,6SF-J2N-1J3-W1K
150.993649,-33.960576,M11-HQD-V3T-W6J
150.997578,-33.957135,31G-ZXJ-DV3-ZE9
150.993851,-33.96062,4QQ-4JB-KD9-V6W
150.997628,-33.95691,H4S-FHV-CQU-G27
150.993992,-33.96063,WA6-CX1-WCA-PVN
150.99431,-33.960663,5AT-P1R-ZC2-K2O
150.997673,-33.956663,G86-4GN-DSS-CGW
150.997715,-33.956361,8K8-GMK-GAA-9AT
150.994796,-33.960675,G2N-9Z2-6FD-C2D
150.99758,-33.956406,UCH-E2V-FOY-Z1R
150.994924,-33.960684,AA9-29Z-7WY-28N
150.994985,-33.960785,C8R-A44-ZQ7-26Z
150.998037,-33.961837,QM4-2V7-9EM-8S3
150.998069,-33.961684,5OC-5EO-PJ8-9ZN
150.994981,-33.960849,MUF-VWR-D6O-HGN
150.997422,-33.957228,WYB-77Q-7YK-R7U
150.998134,-33.961426,1S3-7J4-MDU-RVN
150.997407,-33.957332,HZ8-NA1-M7S-WHR
150.998135,-33.961284,W2Q-N93-DJT-2OK
150.997385,-33.957441,XXQ-722-8ZC-TZJ
150.994263,-33.960768,ACH-JF8-S78-P32
150.998018,-33.961214,3GC-17E-RCG-885
150.998032,-33.961126,XE5-EC5-CXK-JHE
150.997382,-33.957469,QG7-969-9DS-MZ7
150.993892,-33.960714,DRH-JHF-VRE-SFH
150.998155,-33.961165,EEU-T3Q-45N-WRW
150.993735,-33.960698,NU1-6C6-RMS-TM6
150.998046,-33.961033,75F-OV5-6TU-3RG
150.99737,-33.957554,GY8-E68-NKK-DFB
150.993585,-33.960678,XKM-YER-8KC-YMH
150.998091,-33.960799,K8M-R7E-R6J-S86
150.997372,-33.957583,CFU-H9D-97S-H8P
150.998211,-33.960918,U4A-1GC-OPW-MEU
150.992914,-33.960597,1UH-G97-MS5-S61
150.997338,-33.957734,VRX-3XN-AO8-M5V
150.992785,-33.960573,XJB-JRK-OC6-Q9C
150.998246,-33.960685,K7Y-QTE-F77-CHC
150.998116,-33.960696,MMP-SPN-3V9-ZGV
150.992602,-33.960552,DHO-6V5-GV5-ZDY
150.998124,-33.960575,KVR-MT1-9O4-XKR
150.997294,-33.95797,QX4-FV4-AUE-N42
150.992442,-33.960546,ONC-ZZG-NGJ-9H3
150.998136,-33.960461,T73-PJX-88P-KGN
150.998329,-33.960368,UWG-ERS-X36-D8K
150.998347,-33.960234,38G-PBR-THV-YYG
150.998186,-33.960304,HJU-KFC-9H3-7WK
150.998229,-33.960193,D52-YOZ-YJU-VF9
150.998226,-33.960077,MP3-16C-JM1-GMD
150.99838,-33.960062,413-NV9-87S-12V
150.998394,-33.959972,U24-1EC-5GF-17X
150.998422,-33.960452,YAN-U62-W2C-D72
150.998256,-33.959821,6KP-TM8-2XU-77U
150.998649,-33.960487,BA9-1V8-UGC-ERK
150.998292,-33.959669,9UO-JXW-C2B-H66
150.998418,-33.959825,H32-DE3-JOU-R37
150.998434,-33.959721,4BZ-WOR-DCE-RTQ
150.998474,-33.959601,7AH-YK3-O8X-S4H
150.998317,-33.959546,6GH-NGS-Y82-GSP
150.998505,-33.959376,HJV-MHV-B11-DPG
150.998293,-33.959431,TF8-WGH-G9D-OTD
150.9991,-33.960673,2MF-6B7-N2N-F6D
150.998544,-33.95926,6SS-Q99-PNG-DUZ
150.999573,-33.96061,WK6-QU6-X4T-H3H
151.000042,-33.960664,6K9-6P6-3JC-UC8
150.998367,-33.959179,MGC-XU8-7KU-AMT
151.0002,-33.960683,V9N-8UC-KXN-DZU
150.998392,-33.959078,WWD-DKV-19B-J8E
150.998417,-33.958963,K5J-8O3-M3Y-G3A
150.9986,-33.958855,YA2-EJ5-ZU1-JPQ
151.000011,-33.960783,SSM-M98-U4D-1F3
150.99861,-33.958766,TO8-KQG-MJO-AXQ
150.9998639,-33.96076094,XEF-6OQ-WCJ-O8W
150.9998056,-33.96075315,4T2-W9T-JB5-MHP
150.999629,-33.960733,23M-2ZW-KP5-M3D
150.999558,-33.960725,HRN-BMK-7YA-75R
150.986846,-33.963698,496-HE5-792-DYS
150.996955,-33.965812,KWE-RRZ-388-KOJ
150.996799,-33.965794,NQF-5ME-BB5-794
150.996573,-33.965761,TH5-2CZ-ZW7-RZ9
150.996496,-33.965759,U3N-12W-CBJ-P7S
150.996345,-33.965733,W4O-6QJ-J9P-XGM
150.996066,-33.965692,221-4D9-E8T-Q7Y
150.995949,-33.96568,KVD-3TO-S65-D9C
150.995883,-33.965672,BRO-CXG-6Q9-Q69
150.99581,-33.965661,QQP-KYG-MPA-X1X
150.995691,-33.965644,CZK-6KS-QQO-VEP
150.995539,-33.965626,8CS-2H8-XFP-W4R
150.995398,-33.965606,YZH-FJK-PCH-D1G
150.995115,-33.965573,ZPP-WV8-E71-87N
150.994971,-33.965554,N2S-HFU-QV3-BTM
150.994727,-33.965529,79O-6CO-JME-NJJ
150.994624,-33.965597,XX5-CG7-85K-6PC
150.994582,-33.965838,B3U-ZJU-Z5U-SB8
150.994423,-33.965533,9X3-TYF-EBK-HZ2
150.994643,-33.965404,BFJ-MQ4-JPW-NUV
150.994815,-33.965422,X8Z-96J-9Q7-531
150.994951,-33.965433,5J6-9AP-F82-RWW
150.995077,-33.965448,KPG-HF1-43D-92X
150.995429,-33.965496,UGT-MSU-XS6-DDN
150.995582,-33.965522,C53-1UN-6TA-7EF
150.995856,-33.965554,3AA-3XS-S7H-6R2
150.995976,-33.965576,R5D-OFG-42V-C4E
150.996351,-33.965614,UFC-W8M-P2A-NOT
150.996617,-33.965635,O8X-8R3-KMB-XHG
150.996475,-33.969161,11B-1H2-5RN-MGX
150.996442,-33.96912,471-6JQ-A6E-67N
150.99641,-33.969089,TC7-X91-7XB-4R6
150.996373,-33.969054,N79-FXO-2ZH-VDP
150.99634,-33.96902,9KJ-EVD-W52-Q3R
150.996305,-33.968996,3AT-5ZC-R3G-5UB
150.996282,-33.968967,6X9-D37-JJH-EC8
150.996253,-33.968941,9UO-JEE-1E9-KJ4
150.996216,-33.968907,CM6-FEK-7RY-ZDC
150.996229,-33.968956,Q1P-FOF-JQ1-D24
150.996197,-33.968927,PTA-O2J-HBZ-2XX
150.996127,-33.968866,MT5-D19-EQK-N3E
150.996056,-33.968798,TX5-O99-55U-39G
150.996023,-33.968769,KXZ-CMQ-PCO-ZNV
150.995866,-33.968613,Q6G-B7M-TM9-MYK
150.995618,-33.968377,SNC-8R1-QB4-6X9
150.995353,-33.968169,K9J-233-PXA-H9S
150.995449,-33.968173,BT9-A2C-X1P-QT2
150.995294,-33.968076,USA-EYN-JQ5-RFB
150.994322,-33.967134,44G-NBY-3KG-52U
150.99423,-33.967037,5WZ-G5Z-AAR-YQ1
150.994107,-33.96689,AEB-HA2-21W-Z6G
150.994644,-33.967291,TN2-324-AT1-HG2
150.994762,-33.967249,6QO-GMO-JRF-Y5C
150.994856,-33.967228,FBE-JPQ-PMG-196
150.994944,-33.967226,XZK-MWD-7A8-Y1Y
150.99501,-33.967238,4PB-37X-6S8-KYQ
150.995097,-33.967239,V2B-PEG-H2U-4TO
150.995321,-33.967259,DBK-RRV-1E8-462
150.995529,-33.967318,7HB-7DF-EAO-71E
150.995673,-33.96738,8YF-DDY-JCN-SB8
150.995796,-33.967534,MOU-KDZ-H2H-3MD
150.995693,-33.967485,OYQ-37T-9HD-VKJ
150.995513,-33.967422,S7K-WT8-QE3-MSN
150.995355,-33.967386,1NU-DSZ-A93-6RK
150.995223,-33.967365,WBD-OAA-EBJ-K4O
150.995003,-33.967348,9Z5-ENX-BVH-3B9
150.994932,-33.967331,ZCM-XP2-P7V-N1U
150.994796,-33.967342,WXN-EZK-VQH-PFU
150.995765,-33.968892,PTY-EOK-AZ1-4VG
150.995843,-33.968898,KTP-MGK-G7V-4MJ
150.995905,-33.968857,5SO-JC3-OY9-85X
150.996007,-33.96894,F3Q-78V-QJK-UZ5
150.996083,-33.968999,M3A-XXN-F3W-K5H
150.996257,-33.969176,ZS5-86J-5YB-22E
150.996296,-33.969218,YCE-8GB-ZTF-ENV
150.999487,-33.960215,OS8-GOK-4UK-DHP
150.999467,-33.960336,QWE-D79-TX6-JD6
150.999433,-33.960516,TKH-JGC-EKC-U4T
150.994303,-33.955716,PGX-HK7-JK5-VMZ
150.999512,-33.960083,FPJ-54J-VBZ-FQQ
150.994645,-33.955758,QPA-UAR-S91-OE8
150.995137,-33.955823,D8D-D5R-KB8-TZF
150.995268,-33.955836,VZA-J9J-FP9-KQ8
150.999546,-33.959947,AQM-GBF-ZBO-JJF
150.999556,-33.95987,PZU-FMU-GE3-R41
150.998503,-33.958438,9F2-YU9-57A-PDR
150.999574,-33.959754,GQO-83O-DEQ-833
150.997853,-33.956142,TBS-2J5-R4O-ZPX
150.998557,-33.95823,PRJ-J3A-NW6-2EX
150.998559,-33.958197,UN4-EB2-526-6AE
150.999603,-33.959632,V1S-R1A-E4C-8AD
150.998586,-33.958091,V4J-U9O-XE7-NDW
150.998587,-33.958051,9XH-FVZ-NDO-H9W
150.998608,-33.957954,CS5-BC1-XF9-73C
150.999637,-33.95939,O41-SVC-ABA-KCR
150.998632,-33.957853,NF8-927-5DC-77U
150.999194,-33.956352,24T-KNY-34T-2HF
150.998642,-33.957746,2RF-ZMR-XPS-7B8
150.998651,-33.957669,NTU-UT9-KOB-6PQ
150.999444,-33.956376,T7P-8H8-X7G-JA5
150.99866,-33.957546,VMJ-X7Z-UJZ-E1N
150.999819,-33.959107,A85-8U3-Y5T-R2T
150.998671,-33.957433,MCQ-EDE-ZXS-2AO
150.99871,-33.95734,UV3-XYE-N6D-CHV
151.000272,-33.956474,ZK7-HV2-WN9-KP2
151.000008,-33.959118,Y6D-684-ZX6-RMS
150.998748,-33.957182,1VD-6HP-JEH-HFP
151.00054,-33.956502,ZG4-8G2-ZKP-8BP
150.999035,-33.956463,CST-CPH-6K8-5CP
150.999027,-33.956533,OMA-86E-HK8-BBZ
151.001764,-33.956655,YBQ-USQ-FEE-B8A
150.998985,-33.956717,R28-RY1-8MD-VS4
151.00184,-33.95667,OQG-65U-H96-BG1
150.998962,-33.956859,81C-YVT-O4X-QDP
150.998947,-33.956957,GBR-P4W-BKB-RDC
150.998885,-33.957328,NAX-GEE-CYU-UEW
150.998838,-33.957515,XQ9-856-4ZG-YZD
150.99882,-33.957632,T3M-N62-KKT-5D2
151.003112,-33.956708,MJR-AC1-5KU-1XO
150.998805,-33.957759,1Z9-168-SEV-VSC
151.002984,-33.956692,BO2-9QB-UMN-3T6
150.998787,-33.957881,NOC-1EQ-D99-KHZ
151.002809,-33.956674,ASU-2YE-OSG-P97
150.998745,-33.958013,SO9-OBE-846-MSP
151.002728,-33.956666,6KJ-M9E-9HW-BOJ
150.998743,-33.958076,DY8-Q8N-9H1-QUM
151.001786,-33.956536,STD-C52-VC1-9G7
150.998699,-33.95833,5Y4-YFH-8BA-HON
151.001624,-33.956515,823-7H2-3AN-H5E
150.998669,-33.958431,6AE-9SF-E1D-21U
150.998653,-33.958515,UCH-6T7-J6E-EF1
151.001475,-33.956493,5ZV-EGC-AXR-221
150.99863,-33.95865,P74-VCH-JFP-K83
151.001237,-33.956323,5OT-A4G-YO1-AOJ
151.000242,-33.959149,CKW-89B-CY2-PMM
151.000495,-33.959182,CSS-Z1W-9NM-3RX
151.000523,-33.959299,7VR-1YO-ZY5-F8K
151.000363,-33.959294,8ZJ-D13-35N-JHR
151.001253,-33.956236,8FH-POD-4N9-M6T
151.000224,-33.959278,Y2J-4FC-2TE-1CX
150.999712,-33.95902,BWQ-J32-8MA-FDN
150.999728,-33.958892,JYN-7AT-5NP-3AX
150.999757,-33.958775,81P-X3R-7H6-YGK
150.999772,-33.958664,7KT-7G6-GC6-BGY
150.999794,-33.958582,9FT-VGA-FDW-PZP
150.999809,-33.958472,W7V-KNA-DFD-P64
150.999823,-33.958365,KOF-GA6-E56-8ST
150.999839,-33.958258,BO3-43C-1BH-W5D
150.99986,-33.958151,237-KPB-A18-QBA
150.999879,-33.958035,F16-HKG-B99-ROY
150.999893,-33.95791,YNA-KS1-ZXN-3ME
150.999916,-33.957804,KTG-HDZ-S4A-1ZC
151.001268,-33.95615,V5N-X9H-9JF-GSU
150.999931,-33.957687,AJ1-62R-2J4-NRB
150.999944,-33.957602,GU4-NJA-HO6-H5Z
151.001386,-33.955533,QCF-BPM-G5E-NPQ
150.999966,-33.957487,41P-TG1-A5U-Q6A
150.999974,-33.957375,DAC-NNP-GB3-XOW
151.001561,-33.955056,QHX-KSE-P6G-1C3
151.00159,-33.954944,OPA-E5B-H7T-1DZ
150.999999,-33.957258,EA9-MF3-J83-P16
151.000013,-33.957174,JFX-KFQ-QET-T6V
151.001614,-33.954744,R1C-94O-TCS-UWF
151.001635,-33.954627,SZV-WOE-5FK-BRW
151.000033,-33.957024,FFN-J2K-U3F-YB1
151.001635,-33.954386,BE8-MJW-8M5-F9P
151.00005,-33.956908,MHF-4SN-M3T-Y4J
151.000079,-33.95671,BOM-BZ1-MHP-2GT
151.001506,-33.954721,UCO-N9K-5Z4-FE6
151.001492,-33.954819,BJ5-FJ9-TC7-UE7
151.001477,-33.954954,33T-347-OE1-TXK
151.000102,-33.956635,1OA-9GZ-72T-E1A
151.001285,-33.955294,P8Q-KNM-BE6-T3V
151.000123,-33.95655,C61-G2X-RXK-MNX
151.001203,-33.95563,D59-ZQD-G7E-W6B
150.999954,-33.956528,E6A-AW8-A5Z-BFB
151.001185,-33.955749,7UR-FVQ-AKP-YDP
150.999949,-33.956582,N6M-N67-VC3-AV6
151.001155,-33.955949,XEN-BQN-K7Y-AJ3
150.999911,-33.95682,4FR-Z9H-MC3-ZY9
150.99988,-33.956956,AVU-12T-OD5-75F
150.999863,-33.957072,JUU-AEH-GHY-5NK
151.000527,-33.956375,2G9-S1T-RAN-AGV
150.999846,-33.957194,ZGT-E4C-FYJ-D4O
150.999824,-33.957318,WDJ-OWD-63M-VKD
150.999808,-33.957431,JM8-XPE-8M3-AZ8
150.999842,-33.956285,MZU-FD9-591-PWP
150.99873,-33.958972,3G8-9A5-WN6-MK8
150.999668,-33.95627,EEM-G9U-V89-OTY
150.998897,-33.958997,F6C-A5Z-CM1-CT4
150.999795,-33.957526,7RX-YSE-9SJ-VQR
150.998891,-33.959087,XSD-OD5-3CK-GSH
150.999508,-33.95625,D1C-HXH-COT-2NJ
150.999775,-33.957658,V3Z-4SG-H89-JOH
150.999307,-33.956218,BDV-FYU-DSM-JAF
150.999036,-33.956186,BHN-CZ4-TBK-2MJ
150.999757,-33.957761,ADM-5X5-68Q-DGO
150.998856,-33.956172,8K5-BP8-3JE-GU3
150.999331,-33.959164,PZE-R38-HVX-BTA
150.999747,-33.957886,1PH-K17-Q3W-8ES
150.99924,-33.959137,YNC-7N7-GEH-CRG
150.99871,-33.956141,2ZH-62C-G1R-6FG
150.999103,-33.95913,WGS-5AQ-GBN-ZM6
150.999168,-33.959003,JK7-NH7-D9V-25E
150.998626,-33.956141,X31-V5Q-AD9-HQD
150.999463,-33.959088,4WE-KBM-19T-8FH
150.999705,-33.958108,X9M-1ER-SN3-23O
150.998541,-33.956116,6DT-ERO-9RH-OWN
150.998493,-33.95611,64E-8K7-OOP-HXO
150.999358,-33.959043,VD9-XHJ-AMP-T66
150.998432,-33.956103,OYQ-179-2C7-C3N
150.998355,-33.956088,AQC-MND-5W5-ZVA
150.998329,-33.956085,U4K-MRM-GTJ-R3O
150.998308,-33.956082,E8Y-OE7-3PO-N3X
150.999692,-33.958229,W2P-GA8-27Q-XET
150.999673,-33.958344,MW1-J1R-JWR-U91
150.999654,-33.958461,1AU-75D-UHM-FQ2
151.000643,-33.959068,UDG-74R-OJV-V8X
150.999645,-33.958515,VP9-97J-3DJ-AB9
151.0007,-33.958817,KY2-ST2-U3O-ZG7
151.000809,-33.959114,F1C-52O-VAX-VZA
150.999622,-33.958654,QJV-QVC-9ZM-HB4
151.000817,-33.958991,131-S27-MM4-CY6
150.999594,-33.95878,R3G-DG9-AXR-T9M
151.000888,-33.958726,W81-357-HCB-3Q8
150.999569,-33.958913,XZO-GHV-9SP-O4X
151.000887,-33.958592,Z67-5UV-D5O-R92
150.999502,-33.959318,4R6-JHN-ZPT-ZP2
151.000733,-33.958586,M8E-HUO-7EP-CGV
150.999484,-33.959454,ADO-6O3-RS3-S1U
150.999479,-33.959586,5YZ-25U-U22-BVE
151.000776,-33.958375,YFS-QZ7-F9Q-QX6
151.00079,-33.958257,YKU-Y3A-9V4-D72
151.000816,-33.958131,XM6-Y3P-3U8-A5T
150.999432,-33.959721,3N6-P3S-NRU-38F
151.000817,-33.958019,32Y-3Q6-VGF-8A2
151.000958,-33.958251,FH3-UZW-AU7-912
150.999396,-33.959922,4A4-ZGC-9DS-PMT
150.99937,-33.960076,62H-OZM-GCW-5R3
150.999354,-33.960171,H9Z-8S6-USO-9SS
151.000981,-33.957979,UF9-U23-27M-8F1
151.000822,-33.957929,EZF-2PD-AZF-MY3
151.000985,-33.957908,HJ3-EF2-N2Q-T6G
151.001,-33.957825,VA5-ZHS-2AA-GE1
151.001012,-33.957768,8SY-F5W-UH7-XAD
151.000856,-33.957807,N18-V65-EJE-OCY
151.00088,-33.957691,ZYY-URP-CH7-73D
151.000888,-33.957591,8TU-P5C-P94-OMM
150.999391,-33.960791,YWR-J4P-Z19-ZMR
151.001014,-33.95762,5Y9-VXX-2QZ-UDK
150.999372,-33.960843,395-9YZ-148-HPS
151.00103,-33.957561,W2F-9FK-TOF-3U8
151.00088,-33.957479,9YZ-AM3-7SA-K6J
150.999351,-33.960941,8CU-CDH-X73-K4P
151.000907,-33.957377,Q75-6AA-PQB-ZP3
150.999247,-33.960779,72V-4AT-V91-ZYJ
150.999232,-33.960901,KEC-9AY-HMU-65M
