Latitude,Longitude,Title
151.003945,-33.953941,Syzygium luehmannii   HEV ERR RU1 MVB
151.003867,-33.953953,Syzygium sp.   53D BZC GDH T68
151.003553,-33.95399,Callistemon viminalis   RQ7 A5S XBM 8S7
151.004051,-33.953923,Tristaniopsis laurina 'Luscious'   XK6 FF6 886 NRS
151.004451,-33.953889,Callistemon viminalis   SJ2 RAC EO1 NM7
151.004877,-33.95394,Nerium oleander   USJ UWN BSB 5ZD
151.004939,-33.953941,Lophostemon confertus   XO4 NON Y8M 6R2
151.005094,-33.954063,Lophostemon confertus   M9Y R4D DQA 9FO
150.996831,-33.961707,Olea africana   RJR CZ4 43K 9KX
150.9969,-33.962075,Eucalyptus tereticornis   SA6 8AO AA4 RTR
150.996876,-33.962172,Corymbia maculata   O9X DAO OJF V7S
150.996706,-33.962396,Callistemon viminalis   PTS GX6 NT4 9SK
150.996864,-33.962317,Callistemon viminalis   5O5 3ZJ GDP 18R
150.996659,-33.962651,Eucalyptus sp.   4M1 WAH 4RT 1XQ
150.996825,-33.962547,Callistemon viminalis   23H X6D 5VS HC5
150.996626,-33.962877,Ceratopetalum gummiferum   9TR 4XY 51N 7Y1
150.996799,-33.962689,Tristaniopsis laurina   CK7 NGE GH7 NG9
150.996773,-33.962823,Callistemon viminalis   FKV XO5 W2G CPV
150.99677,-33.962882,Robinia pseudoacacia   FPX XGM 8K5 VCK
150.996566,-33.963121,Eucalyptus tereticornis   YUP CTX JY4 Q3W
150.996758,-33.962935,Robinia pseudoacacia   V6U AQE 86N MGN
150.996762,-33.962908,Prunus sp.   O35 4SW KD8 EOX
150.996554,-33.963245,Eucalyptus ficifolia (grafted stock)   EN2 3AT 73C YOG
150.996744,-33.962987,Fraxinus 'Griffithii'   26W SP8 4QT BAD
150.996706,-33.963154,Eucalyptus ficifolia (grafted stock)   D9S MZV SKX 39K
150.996597,-33.963478,Callistemon viminalis   5VV CDS PRH 73X
150.996668,-33.96329,Callistemon viminalis   RHY QBJ K3S CWH
150.996681,-33.963415,Lagerstroemia indica cv.   SPK DU1 SEK GRM
150.997983,-33.961436,Fraxinus 'Griffithii'   769 UJ3 G7A 8N1
150.997744,-33.961648,Lophostemon confertus   UOJ FVV CZY 2ME
150.997571,-33.961633,Lophostemon confertus   3GK O7H 439 2OM
150.997852,-33.961552,Callistemon viminalis   BUC YE3 KGF JAS
150.997791,-33.961545,Callistemon viminalis   U4P KUG RQ5 761
150.997232,-33.961584,Lophostemon confertus   7HW MF5 3R7 G6G
150.99773,-33.961542,Callistemon viminalis   WX9 MMW MKK N1P
150.99679,-33.961571,Platanus x hybrida   JEM T92 KOX DE3
150.997035,-33.961347,Callistemon viminalis   QC7 E7N W3P HSP
150.996909,-33.961247,Callistemon viminalis   JVE BOB 2DN DUJ
150.996477,-33.9615,Lophostemon confertus   XDA UZQ N8E N22
150.996934,-33.961166,Callistemon viminalis   CZD VPG 3M9 55U
150.996178,-33.96147,Eucalyptus sp.   E1O OF7 X3O 51V
150.996044,-33.961443,Lophostemon confertus   Q32 VRR 6GA 8YH
150.996656,-33.961393,Lophostemon confertus   DEH 2V2 C95 JOM
150.995698,-33.96139,Callistemon citrinus   AB3 W1N XNE DD9
150.996486,-33.96137,Lophostemon confertus   PXS 57P UHD 9JB
150.996342,-33.961353,Tristaniopsis laurina   YPX F8Z 9K5 T9N
150.995279,-33.96133,Callistemon salignus   1KW 1XU V8R AXQ
150.996221,-33.961339,Unident / evergreen / Exotic   BAC 19U DRO 49X
150.99545,-33.961245,Callistemon viminalis   96U YVJ HNT ZAC
150.995653,-33.961265,Callistemon salignus   NGC D8A WWN UEA
150.995712,-33.961277,Callistemon salignus   NBR U8S 7T3 UHK
150.995969,-33.961178,Callistemon viminalis   7VQ X33 3BF BKG
150.995829,-33.961125,Callistemon viminalis   OPK XWK 1AN 7CU
150.995742,-33.961561,Callistemon salignus   AG9 F4Q 8N3 12H
150.995661,-33.961948,Callistemon salignus   A6J TQC TF4 RBO
150.995656,-33.962009,Callistemon salignus   6WW GPR O1Z 9FS
150.996013,-33.960884,Callistemon viminalis   COH ACD FXF N5U
150.996044,-33.960755,Callistemon viminalis   565 782 YNH 16X
150.995803,-33.96208,Tristaniopsis laurina   9H8 AR3 9MR 38O
150.996041,-33.960691,Callistemon viminalis   XEG H9B FON O3A
150.995882,-33.96171,Callistemon viminalis   JQA M2E VNK E7D
150.996054,-33.960547,Callistemon viminalis   PS9 8TE EF4 3QE
150.996072,-33.960431,Callistemon viminalis   2J5 QED A5Q EFJ
151.004162,-33.946718,Callistemon viminalis   3TO NHH 27F 6DK
151.004415,-33.94675,Lophostemon confertus   YUK MCA Z21 3UK
151.004566,-33.946772,Lophostemon confertus   219 MCK CWH DPA
151.004763,-33.946813,Lophostemon confertus   EGC WQ4 DUM SR2
151.005073,-33.946849,Callistemon viminalis   QS3 87S O7H DA7
151.005201,-33.947096,Callistemon viminalis   33B KCA V11 2PT
151.003977,-33.948342,Lophostemon confertus   KN8 9VQ QSU 16Z
151.005164,-33.94722,Callistemon viminalis   BSQ ST4 ADA TTX
151.004216,-33.948372,Prunus cerasifera 'Nigra'   HRH 9SS QW1 O2Z
151.005148,-33.947336,Callistemon viminalis   63Z M5P 24U ZTW
151.004258,-33.948378,Malus sp.   234 2SG SKR BO9
151.005098,-33.947517,Callistemon viminalis   HPJ CV6 VYR 6RO
151.004368,-33.948395,Callistemon viminalis   KTF GY5 BQC VW1
151.005077,-33.947673,Callistemon viminalis   73X BMO J7S K4U
151.004364,-33.969929,Melaleuca linariifolia   2E5 5JJ VYU QZG
151.004375,-33.969822,Callistemon viminalis   H3K 9BZ OA2 YX8
151.004402,-33.969682,Callistemon viminalis   DN2 2SO JN8 HEV
151.005045,-33.94784,Sapium sebiferum   E82 U4C 785 YP3
151.004563,-33.948515,Callistemon viminalis   9QX W77 T9J 5KG
151.004974,-33.948105,Callistemon viminalis   BSN RMK OAZ 165
151.004586,-33.969257,Callistemon viminalis   TYO 5XC BMM WOJ
151.0042,-33.948463,Callistemon viminalis   JZ7 5EF PQB QUW
151.004623,-33.96913,Callistemon viminalis   JSW 454 VGS RF5
151.003972,-33.948422,Callistemon viminalis   UYU P3A XRF BU8
151.004834,-33.948714,Callistemon viminalis   B2J YEH 2M1 K3Y
151.003546,-33.948372,Callistemon viminalis   GBU UBH D4B 5CP
151.004641,-33.969009,Callistemon viminalis   BAS QEV M45 3GY
151.004663,-33.968851,Callistemon viminalis   TNO FVX AGY 444
151.003556,-33.948273,Callistemon viminalis   5SX QGG U5K QOK
151.004634,-33.968694,Callistemon viminalis   MSP 9EO RAU YUS
151.00373,-33.948306,Callistemon viminalis   88U RD6 CRP GQE
151.004655,-33.968418,Callistemon viminalis   33P 3TW 6BB 9KG
151.004692,-33.968294,Callistemon viminalis   JUH KK5 BDQ 7SN
151.004899,-33.967762,Callistemon viminalis   MUX Y69 3CU 2UQ
151.00493,-33.967597,Brachychiton acerifolius   3N7 7CH R7D C9W
151.003269,-33.948448,Callistemon viminalis   GFM VF7 C6Z OFD
151.002789,-33.949364,Callistemon viminalis   OFY OAS FEN YK9
151.004961,-33.967501,Eucalyptus paniculata   1R6 9M9 GOZ 3S5
151.002721,-33.949368,Callistemon viminalis   VFE EUC Z66 W9Y
151.003267,-33.94856,Eucalyptus sp.   96K 5WQ 67M MO8
151.003227,-33.948669,Eucalyptus ficifolia (grafted stock)   KSP DKO P9A 631
151.002647,-33.949372,Callistemon viminalis   NHH F3B YMW ZRK
151.004948,-33.967414,Callistemon viminalis   ZYG 44A YP1 WNX
151.004991,-33.967299,Prunus cerasifera 'Nigra'   UX8 EA8 EVN BEU
151.003185,-33.948765,Jacaranda mimosifolia   XUG TWZ Q3P 8KJ
151.002782,-33.949387,Pistachia chinensis   1NA 21B P8X D43
151.003177,-33.948947,Eucalyptus cinerea   AF9 BWW RUT QD4
151.00224,-33.949436,Pistachia chinensis   EJ9 ZR9 PQM QB9
151.004175,-33.967124,Callistemon viminalis   RKB H1W XHE TGA
151.001891,-33.949475,Pistachia chinensis   M3J 78U 4ZN WPC
151.003117,-33.949144,Eucalyptus sp.   P2C PBB 383 UTF
151.00508,-33.966795,Callistemon viminalis   UQ9 XNX 1VG 96R
151.00513,-33.966618,Callistemon viminalis   B31 MD3 JM6 H38
151.002912,-33.949293,Eucalyptus sp.   KMY Q8A 9FE EER
151.00513,-33.966477,Callistemon viminalis   1ER 2JQ 19Z ZRC
151.002941,-33.949236,Eucalyptus sp.   6HP 8OS 9C7 5PD
151.005108,-33.966369,Callistemon viminalis   PT4 WRK DDK PMK
151.001209,-33.949391,Callistemon viminalis   G8U DRW 1UE F41
151.002978,-33.949062,Eucalyptus sideroxylon   X5T SRJ M78 FB3
151.001093,-33.949413,Callistemon viminalis   663 XRX QHW 26R
151.005172,-33.966319,Callistemon viminalis   7CN 4EB M69 DA7
151.003018,-33.948924,Eucalyptus sideroxylon   FES P5W V48 3AR
151.005315,-33.96637,Callistemon viminalis   711 1M1 ZJU GYP
151.001083,-33.949316,Callistemon viminalis   65K D3A DV4 QJ4
151.003057,-33.948767,Eucalyptus nicholii   YYK 2KX RYO 8V1
151.005274,-33.966488,Callistemon viminalis   QMJ GE2 O8H 9Z7
151.001091,-33.949208,Callistemon viminalis   1OK CSG AOO ZYY
151.005243,-33.966597,Callistemon viminalis   EGE DNM E22 TDQ
151.00307,-33.948594,Eucalyptus sp.   PBX QCJ 4QS 5MH
151.001229,-33.949183,Callistemon viminalis   7HK XAR 3R5 2YR
151.005223,-33.966703,Callistemon viminalis   Q2P K83 246 YF6
151.003147,-33.948435,Eucalyptus sideroxylon   RJT F6J TSY VER
151.003175,-33.948309,Lophostemon confertus   SUC 66R D25 PAJ
151.005198,-33.966855,Lophostemon confertus   EWN UA4 8XR 5QW
151.001135,-33.949061,Tristaniopsis laurina   CPB AKZ P9T YEZ
151.005162,-33.966979,Callistemon viminalis   1QM H78 MAZ VNP
151.001164,-33.948903,Callistemon viminalis   G6W R89 XMY 94B
151.005135,-33.967142,Callistemon viminalis   UU2 H85 UDM 938
151.001299,-33.948901,Callistemon viminalis   AYA GNK KRZ VG2
151.005103,-33.967291,Callistemon viminalis   1J7 184 R8Z 57R
151.001399,-33.94845,Callistemon viminalis   N7S 8BY 8U5 AMW
151.00506,-33.967486,Callistemon viminalis   ZVE MO5 GWH ENU
151.005058,-33.967565,Callistemon viminalis   AC8 8RW 13B 1A7
151.005019,-33.967682,Callistemon viminalis   TTS F39 9J8 QGF
151.005015,-33.967896,Callistemon viminalis   2KD XFO 7UJ JS6
151.004975,-33.96798,Callistemon viminalis   XUU 2XF 366 82F
151.004901,-33.968118,Tristaniopsis laurina   JPM 27M X7Z FPK
151.004795,-33.968326,Callistemon viminalis   DZE JJT 5QU ZON
151.004764,-33.968828,Callistemon viminalis   5TF FZD DRD J7N
151.004773,-33.968947,Callistemon viminalis   GUO CYQ 3W2 NY2
151.001557,-33.948149,Callistemon viminalis   8GX RY5 N5C V3R
151.003199,-33.94811,Eucalyptus sideroxylon   88E F8C KHA 6VC
151.001588,-33.947998,Callistemon viminalis   37M SE3 1JN J6H
151.0047,-33.969256,Callistemon viminalis   PM9 CRY YVF RBA
151.003251,-33.94796,Melaleuca bracteata   WUO 661 JNJ FJ3
151.004652,-33.969392,Callistemon viminalis   WKU ASC MA6 A8A
151.001471,-33.947967,Callistemon viminalis   27R 2FM EER Y19
151.004612,-33.969502,Callistemon viminalis   AJQ UDW 9U1 O3G
151.001504,-33.947828,Callistemon viminalis   EAN QJH 8M1 692
151.003312,-33.947618,Lophostemon confertus   36C RF3 QP1 VRV
151.004509,-33.969748,Callistemon viminalis   DFN QTY 51B U11
151.001546,-33.947664,Callistemon viminalis   O3W RP6 82A E8Q
151.001562,-33.947562,Callistemon viminalis   NMU NWT A8M 8PG
151.00446,-33.969901,Melaleuca sp.   PQF K6F BXQ XTD
151.003361,-33.947421,Melaleuca bracteata   DSM VRM F4N U9F
151.004452,-33.969981,Sapium sebiferum   ZC7 UQ4 TSP SNW
151.00159,-33.947455,Melaleuca quinquenervia   J7F GBR O1A XH4
151.001592,-33.947426,Callistemon viminalis   TH4 AVC GG8 GZV
151.001618,-33.947294,Callistemon viminalis   JKW E4K ZTF RJK
151.001689,-33.946625,Olea europaea   EKS SCO 79W CER
151.003532,-33.947411,Syzygium paniculatum   KGN GHJ PRC CEB
151.001803,-33.946651,Callistemon sp.   DA7 PSV 84V WC1
151.003507,-33.947445,Syzygium paniculatum   XGC BUX 33F 622
151.001795,-33.946902,Callistemon viminalis   EVP 8UP O2P 1XH
151.003548,-33.947504,Unident / deciduous / Exotic   E1U DFF ONK 76O
151.0018,-33.947038,Callistemon viminalis   G9J RU8 V9Q M1Q
151.00364,-33.947516,Unident / deciduous / Exotic   FT3 63K JFS M4Q
151.001781,-33.947154,Robinia pseudoacacia   RN3 6ER ZKE GY1
151.00371,-33.94753,Other species (Exotic & Deciduous)   2SY 27M CXX 6UQ
151.003754,-33.947533,Gleditsia tricanthos   FRU RET HDG DGG
151.001549,-33.948733,Callistemon viminalis   6X6 PR5 XZY T5G
151.001492,-33.948823,Callistemon viminalis   3SX Z2O DXY 8NF
151.003892,-33.947529,Liquidambar styraciflua   1MN V63 8WD Y7Z
151.003988,-33.947567,Melaleuca bracteata   CUO 567 3F1 1KB
151.003038,-33.946542,Callistemon viminalis   JP5 C27 HHR 5KF
151.004265,-33.947353,Acacia sp. (Native & Evergreen)   HUG 3GN TTW Y7N
151.004382,-33.947553,Callistemon viminalis   63R 62Q H5P EXH
151.004319,-33.947642,Callistemon viminalis   65D 2YT AZS EV7
151.004173,-33.947677,Callistemon viminalis   7U4 TW2 PFQ 8KC
151.004018,-33.947669,Callistemon viminalis   JF1 JS5 2XW Q16
151.003851,-33.947651,Callistemon viminalis   UVP 9YJ S4R H2B
151.003623,-33.947604,Callistemon viminalis   QSO KMF FDC CE7
151.003409,-33.947846,Eucalyptus ficifolia (grafted stock)   KGR NPM S4V 3TE
151.000597,-33.946146,Callistemon viminalis   YSK QRV KA6 H9F
151.001634,-33.946317,Callistemon viminalis   2UP 4NA Q4X DZ3
151.001315,-33.94627,Callistemon viminalis   ADY WHM XAD K35
151.000189,-33.946101,Callistemon viminalis   8PF 28F A59 BTM
150.999948,-33.946061,Callistemon viminalis   5KJ 713 JOR BH1
150.999708,-33.946478,Tristaniopsis laurina   1DD TZJ OAP VNR
150.999689,-33.946619,Olea europaea   R1R 25G ZPO 8YJ
150.999528,-33.947353,Hymenosporum flavum   2TK 4MZ JFV 936
150.999491,-33.947514,Eucalyptus melliodora   SMS 1EK QOM WDU
150.999467,-33.947623,Olea europaea   4H2 N98 E8C BOR
150.999349,-33.948098,Olea europaea   9FD HRT K7R JZ1
150.999299,-33.948394,Olea europaea   REV R1O R6T ZAB
150.999265,-33.948564,Olea europaea   MK8 DOM VZV J74
150.999223,-33.948701,Olea europaea   9P6 QQA KN5 Z9Z
150.999798,-33.948774,Callistemon viminalis   8QP CFZ BDP 2E2
151.000007,-33.948748,Olea europaea   8A6 HBF WEY E52
151.000246,-33.948465,Olea europaea   OA6 C2W ATN 3QF
151.000267,-33.948347,Olea europaea   TH8 8EE HTN 8FH
151.000379,-33.947783,Olea europaea   K8A KMM FH2 UN1
151.000409,-33.947651,Olea europaea   X99 XC7 CCG CWD
151.000438,-33.947511,Olea europaea   AB6 GW4 RTZ VVR
151.000509,-33.947259,Olea europaea   FRW 4SZ S32 B8Q
151.00058,-33.946932,Olea europaea   HBU GBB JR9 T1Z
151.000594,-33.946824,Tristaniopsis laurina   699 93R WC8 Z9V
151.000708,-33.946303,Olea europaea   XVZ 2C6 JBW VGQ
151.000851,-33.946395,Callistemon viminalis   1ZU 72V 7DW UJC
151.000832,-33.946453,Callistemon viminalis   1XE 27D BF3 HWJ
151.000821,-33.946551,Callistemon viminalis   YSX YBO 1SZ 1HG
151.000794,-33.946653,Callistemon viminalis   Y3C TGV T94 YN7
151.000747,-33.946841,Olea europaea   1HA XQ9 8AY 7SE
151.000717,-33.94699,Olea europaea   8Q2 1BO CD1 ENH
151.000678,-33.94719,Eucalyptus longifolia   G3D XKG UH3 762
151.000663,-33.947268,Eucalyptus longifolia   CU2 B27 JPN HQ9
151.000641,-33.947311,Eucalyptus melliodora   52V SVY 8NW 39R
151.000627,-33.947424,Callistemon viminalis   Z4D Z7J X4P AQZ
151.000589,-33.947571,Olea europaea   2X5 EE9 4BS NQZ
151.000552,-33.947702,Eucalyptus melliodora   AD5 PY3 GUX CPQ
151.000489,-33.94801,Olea europaea   REB Z4P 6AM 6X6
151.000463,-33.948166,Olea europaea   PEO EPD 32B 3AX
151.000431,-33.948305,Olea europaea   G2H 1XQ 3QS DZV
151.0028,-33.946772,Eucalyptus ficifolia (grafted stock)   9FR ROH 5MP N5N
151.000387,-33.948487,Olea europaea   5BT 3D3 T6O 2YW
151.000362,-33.948619,Olea europaea   ZXJ N5M F4C P89
151.0027362,-33.94662527,Eucalyptus ficifolia (grafted stock)   CXR RA8 W1A 7Z2
151.000326,-33.948761,Olea europaea   CKF DAU TU9 U2O
151.002751,-33.946961,Callistemon viminalis   9AG RU1 U8M C5U
151.000289,-33.949608,Tristaniopsis laurina   W6V Y15 1Y1 D7S
151.002737,-33.947082,Eucalyptus ficifolia (grafted stock)   Z2R SBY ZMM B93
151.000514,-33.949592,Tristaniopsis laurina   E6F 8Y3 KZN 2YK
151.002654,-33.946954,Waterhousia floribunda   46B NXP 5CT 5YA
151.002641,-33.947014,Waterhousia floribunda   EBU MJB 6PU FSB
151.002704,-33.947214,Eucalyptus ficifolia (grafted stock)   TC2 9RF CO3 4WJ
151.002609,-33.947197,Eucalyptus ficifolia (grafted stock)   32S F5M SPA BBV
151.002567,-33.947347,Callistemon viminalis   7EF 2TC VNP MD9
151.002601,-33.947731,Eucalyptus ficifolia (grafted stock)   6OU 9AS XYS OB6
151.002538,-33.947527,Eucalyptus ficifolia (grafted stock)   3R3 RV9 N8V 9MC
151.002551,-33.947896,Eucalyptus ficifolia (grafted stock)   BGJ FDZ UB6 8OO
151.002493,-33.947606,Callistemon viminalis   564 3KR ZOJ GXV
151.002472,-33.947713,Callistemon viminalis   KHW C71 DFP C89
151.002451,-33.947891,Unident / evergreen / Exotic   KJY BGF GSK 4D4
151.002494,-33.948192,Platanus x hybrida   CE6 62K 1EY 26H
151.00238,-33.948247,Eucalyptus ficifolia (grafted stock)   72M VNN N46 O17
151.002483,-33.94823,Platanus x hybrida   B54 UBJ NSU SZK
151.002458,-33.94832,Platanus x hybrida   189 536 QBZ CF7
151.002449,-33.948359,Eucalyptus ficifolia (grafted stock)   69C 9JJ 7ZK JET
150.999666,-33.946206,Olea africana   SZJ DEF QKO TNH
150.999639,-33.94634,Olea africana   HDT NMZ JBB HMF
150.999617,-33.946459,Olea africana   B3O 5XY KMK 3M8
150.999564,-33.946612,Olea africana   5U6 1Q8 QZF N9V
150.999556,-33.946663,Callistemon viminalis   VQ3 W61 VG5 PES
150.998579,-33.945944,Lophostemon confertus   5MB RD6 T18 QY4
150.99951,-33.946895,Olea africana   XVQ F19 2FC 52X
150.99945,-33.947176,Jacaranda mimosifolia   CNM V3B QGY M93
150.998581,-33.946495,Metrosideros thomasii   R45 AN3 GWV F3D
150.998571,-33.946661,Waterhousia floribunda   XRX CNE SVN 79C
150.999414,-33.947334,Callistemon viminalis   9R2 MK1 GFT 7T5
150.998531,-33.94682,Eucalyptus ficifolia (grafted stock)   NCO NPY EN5 GOG
150.999373,-33.947491,Olea africana   H1M ROM 2KO VDS
150.998506,-33.946924,Tristaniopsis laurina   Q9Z Y6T U6H QQ4
150.999356,-33.947615,Olea africana   MQ4 G7Z NJ2 9R7
150.998465,-33.947105,Callistemon viminalis   82Q TWB GGD FCJ
150.999323,-33.947738,Tristaniopsis laurina   EO3 VVX R41 EJ8
150.998438,-33.947206,Callistemon viminalis   DTK 7Y9 PPK N1K
150.999316,-33.947782,Tristaniopsis laurina   53Y OBE FXQ TFY
150.998398,-33.9474,Callistemon viminalis   OSO 72A PE8 8SY
150.99928,-33.947899,Olea africana   FBA YZU NKJ TSG
150.998388,-33.947474,Tristaniopsis laurina   O3R QB2 JZQ EYG
150.999246,-33.94809,Olea africana   PN7 TM4 N3M C1H
150.998341,-33.947679,Callistemon viminalis   N6A PMJ 88W 4X9
150.998322,-33.947779,Callistemon viminalis   9ZS BXA 63C E9S
150.999181,-33.948357,Olea africana   Q7T 8WG JM4 427
150.999151,-33.948538,Olea africana   OKQ XB2 65P 9TY
150.998246,-33.948063,Callistemon viminalis   JN1 D49 H4Z QTB
150.999107,-33.948699,Olea africana   47O TPH 923 ES7
150.998231,-33.948178,Eucalyptus ficifolia (grafted stock)   WFB 48T QFO D5N
150.998183,-33.948407,Callistemon viminalis   FC1 GXB CHW HX6
150.998771,-33.948969,Callistemon viminalis   WVD 655 1YV RVV
151.000253,-33.949089,Syncarpia glomulifera   7J5 5UG UHX SSS
150.998969,-33.948946,Olea africana   V13 7A9 QE5 9CS
150.998131,-33.948611,Tristaniopsis laurina   QT7 JYS GZQ GDD
150.99931,-33.948921,Olea africana   QDZ KFS RN6 39U
150.998095,-33.948821,Eleaocarpus reticulatus   N2G 9SS RGV CDB
150.998043,-33.948987,Callistemon viminalis   HXO 646 XV8 O5D
150.998005,-33.949165,Callistemon salignus   4A1 4S8 YMO AOD
150.999766,-33.948869,Waterhousia floribunda   HWH FPT V49 CTK
150.997817,-33.949596,Syzygium paniculatum   CD7 NA4 EVP OWG
150.997866,-33.949374,Callistemon salignus   RO3 TUV 72T FP3
150.997666,-33.949867,Tristaniopsis laurina   MDC 5RX A8R 2U4
151.000063,-33.949256,Olea africana   YC7 B25 NM5 BQ7
150.997889,-33.949254,Callistemon salignus   BN7 NB5 F6D AC2
150.997897,-33.949204,Callistemon viminalis   8PF ZJ5 YFE 1NS
151.000031,-33.949425,Olea europaea   TVA A11 KJT K8G
150.9979,-33.949133,Callistemon viminalis   4FY 9SN U1M RTG
150.997953,-33.948965,Tristaniopsis laurina   7N1 OP2 B4Y RN6
150.997992,-33.94883,Callistemon viminalis   MKU Y8Z KN7 U9G
150.998074,-33.948382,Callistemon viminalis   GOU U9C R2Q KXA
150.996784,-33.949758,Callistemon salignus   MBW XWG 81C 5W5
150.998093,-33.948315,Callistemon viminalis   CMA 23P ANJ 99E
150.997028,-33.949929,Tristaniopsis laurina   EKC 6VC ADS 3JZ
150.998111,-33.948254,Callistemon viminalis   W7F VET KBK 7JD
150.999087,-33.94974,Lophostemon confertus   KH1 WQD 47T AJC
150.998114,-33.948178,Callistemon viminalis   75A QV4 26D C5C
150.99896,-33.949752,Lophostemon confertus   XKV K1K T8S YMM
150.998139,-33.948129,Callistemon viminalis   UG5 51S E8Y JS7
150.998224,-33.947768,Callistemon viminalis   16N H1N M6Y 1OQ
150.996806,-33.949623,Callistemon salignus   E4Q KKD SFK ZGT
150.998655,-33.949771,Lophostemon confertus   JUM E7W PUJ 2OC
150.998231,-33.947718,Melaleuca sp.   S8D ONK UO7 O1C
150.996842,-33.949459,Melia azadarach   41E F14 O3F 1YR
150.998246,-33.947625,Callistemon viminalis   W2Z DAB BNT EJ7
150.998254,-33.947563,Callistemon viminalis   8G2 CQ6 DUE MU2
150.996848,-33.949391,Melia azadarach   HJP NQQ 5TP 6JY
150.998321,-33.949801,Tristaniopsis laurina   WTH Q3O X87 3YT
150.996858,-33.949351,Melia azadarach   6MF KA1 EF5 2WX
150.998294,-33.94743,Callistemon salignus   TXD X92 4XX U9X
150.996882,-33.94927,Jacaranda mimosifolia   DE9 KHA 9KR GRM
150.998311,-33.947367,Callistemon viminalis   EZE O7M SVR GWF
150.998139,-33.949831,Tristaniopsis laurina   X9U KVO P1O UA7
150.998307,-33.947324,Callistemon salignus   VSG OGO XMU 7H6
150.998336,-33.947216,Callistemon salignus   XO4 AX6 2VH 3B8
150.998344,-33.947141,Callistemon salignus   K1N R3X WH4 TU7
150.998396,-33.946915,Callistemon viminalis   9EE SRO 4HT P79
150.996912,-33.949154,Nerium oleander   RAJ ANE KMQ E1M
150.996931,-33.949082,Callistemon salignus   GOV CAR MWG E9P
150.996955,-33.94897,Callistemon viminalis   1AP 7YU FME EU2
150.99843,-33.946797,Waterhousia floribunda   SU4 JSX D7G Q3O
150.996992,-33.948825,Callistemon salignus   T39 YQ7 OMZ 3V1
150.998468,-33.946654,Tristaniopsis laurina   W86 9KK W9F MKH
150.998745,-33.945877,Callistemon viminalis   5N9 PED HGO YNC
150.998471,-33.946376,Callistemon viminalis   4AD 9D1 2B5 AV6
150.998472,-33.946362,Callistemon viminalis   ZNM OBV 3B1 Z7O
150.998976,-33.945926,Callistemon viminalis   XTP 63X FEZ VK2
150.998469,-33.946144,Callistemon salignus   8O1 VB5 GC4 551
150.999286,-33.945962,Callistemon viminalis   XWQ HW7 HHE SGR
150.998454,-33.946064,Callistemon viminalis   GHW P4Q JSV 11J
150.998461,-33.945996,Callistemon salignus   7OR J4K WPM 95U
150.999406,-33.945987,Callistemon viminalis   CAD X9Z KXT KQX
150.9971,-33.948292,Tristaniopsis laurina   OM9 OND TF4 DNS
150.995633,-33.94995,Eucalyptus melliodora   JDF 8ZF 2M4 SXB
150.997156,-33.948072,Callistemon viminalis   VH3 5AX WSR 66E
150.997165,-33.947998,Callistemon salignus   JZW DP1 U6B M6D
150.997187,-33.947901,Callistemon viminalis   6B8 6QN J99 DDQ
150.997256,-33.947624,Callistemon viminalis   EUA TXH Q8K U64
150.997456,-33.947875,Callistemon viminalis   FKK OKQ 5T5 F25
150.997285,-33.947478,Callistemon viminalis   QOA 9CW FMU O5B
150.995737,-33.949538,Callistemon sp.   798 Y1Q 7T8 ZT2
150.997458,-33.946761,Callistemon viminalis   KHO RY8 SBS 23R
150.997484,-33.946666,Callistemon viminalis   6EA 7VY 7MO QO8
150.997563,-33.946375,Syncarpia glomulifera   C4M EJ1 UDZ N4E
150.99758,-33.946255,Callistemon salignus   FCJ 742 2WO ZN6
150.997543,-33.945881,Callistemon viminalis   SOE 19W PAJ 3AS
150.997529,-33.945994,Callistemon viminalis   Y41 VDB PK6 TXM
150.995898,-33.948775,Eucalyptus sp.   NOB 3DA 7Q2 H4V
150.997517,-33.946053,Callistemon viminalis   FJO JXR 4H4 3XG
150.995906,-33.948752,Melaleuca sp.   VBC 8Y9 KPC GEO
150.997443,-33.946357,Callistemon viminalis   OA8 U6K MW6 QSQ
150.99595,-33.948584,Syzygium paniculatum   Q8D 8OM 3X9 TTE
150.994551,-33.949246,Melaleuca styphelioides   M8R X16 9PQ A7G
150.994627,-33.949028,Eucalyptus microcorys   GAF 9DY JO1 N9G
150.997378,-33.946622,Callistemon viminalis   JYH 7TK MFJ XJG
150.994812,-33.948831,Grevillea robusta   ZT2 642 E2M UC2
150.997349,-33.946768,Glochidion ferdinandi   9CT 9C9 85G C3H
150.994804,-33.948856,Casuarina glauca   3FO 86C A6S N8R
150.994743,-33.949004,Callistemon viminalis   TWC R6D F1O XFG
150.997264,-33.947066,Callistemon viminalis   TBT FCJ 7UG SAK
150.997202,-33.947323,Callistemon viminalis   25B NHY Y14 XCC
150.994708,-33.949118,Corymbia maculata   G8K 9P5 JBE O56
150.997126,-33.947615,Callistemon viminalis   JPO OJR UA7 482
150.994665,-33.949356,Tristaniopsis laurina   GZU CME ZBD DQ4
150.997083,-33.947865,Callistemon salignus   3XM KDR HSB B5E
150.994639,-33.94944,Robinia pseudoacacia   CV3 72X UPR FK3
150.997025,-33.948123,Callistemon viminalis   8DB XBH 36O XXM
150.996964,-33.948392,Pittosporum rhombifolium   2KK WRF 9HB G1J
150.996958,-33.948434,Callistemon viminalis   B1S 8NC MD8 ONS
150.99457,-33.949862,Callistemon viminalis   928 ZB4 B2Z SM8
150.996937,-33.948513,Callistemon salignus   NTH MXB V4J F5K
150.994371,-33.950051,Eucalyptus sideroxylon   PMP HU3 AYQ 77P
150.994381,-33.949958,Eucalyptus sideroxylon   3BW B8M DGV CWU
150.996903,-33.94869,Hibiscus rosa sinensis   EJO UN4 5CX 86S
150.994531,-33.949351,Eucalyptus haemastoma   235 5DE 3EP QTR
150.99685,-33.948946,Jacaranda mimosifolia   1KN 5AV UHX XKQ
150.996818,-33.949087,Callistemon salignus   9HV 8D7 53E 76C
150.996783,-33.949229,Callistemon salignus   KR2 VUY K9M VJF
150.996765,-33.949349,Callistemon salignus   F7O 46C ECX GCG
150.996721,-33.949517,Callistemon salignus   Y16 FT9 6CQ 5SF
150.994883,-33.950147,Tristaniopsis laurina   YZ8 RE9 DU5 VTM
150.996661,-33.949807,Leptospermum petersonii   T4X E6E FP5 OP1
150.995367,-33.95011,Tristaniopsis laurina   X67 8YD CBN P7Y
150.996421,-33.949997,Tristaniopsis laurina   Y3M NQR V9X 8N4
150.996281,-33.950018,Lophostemon confertus   1JV 5CZ GFQ HC7
150.996002,-33.950037,Tristaniopsis laurina   YOV Q9R JHK Q6C
150.996145,-33.950021,Lophostemon confertus   DEH KME R8M RJV
150.995811,-33.950061,Lophostemon confertus   QT6 OZQ ME8 G3O
150.989124,-33.9539,Eucalyptus microcorys   448 QGQ OB8 DU3
150.989181,-33.953876,Eucalyptus microcorys   WUF V61 ZN9 HWE
150.989274,-33.953825,Eucalyptus microcorys   5SE Z2Q KD2 GKO
150.989341,-33.95379,Eucalyptus microcorys   M4Q 2VA TAP QU1
151.004199,-33.949324,Eucalyptus sp.   4A7 EXC D29 3T8
150.989399,-33.953759,Eucalyptus microcorys   SBY MCF 6RG O15
150.989478,-33.953716,Eucalyptus microcorys   3OE KRW ZZK YPF
151.003847,-33.949272,Pistachia chinensis   URT FW7 7RA OYR
150.989597,-33.953634,Eucalyptus microcorys   OMB GFY BN7 HWE
150.989685,-33.953595,Eucalyptus microcorys   U1O E9F 63D JGA
151.003273,-33.949426,Pistachia chinensis   KEK 819 ZQX 5MR
150.989843,-33.953499,Eucalyptus microcorys   3X9 4B4 WTX WDX
150.990009,-33.953406,Eucalyptus microcorys   O5K AFW VWM T7M
150.990228,-33.95327,Eucalyptus microcorys   5F1 41M FTS JZB
150.998318,-33.94583,Callistemon viminalis   7QZ T2O E69 VNK
150.99092,-33.952894,Eucalyptus microcorys   3G3 5ON UMD U1J
150.996222,-33.947334,Melaleuca quinquenervia   KPD 86G 8XR GTX
150.991018,-33.952834,Eucalyptus microcorys   FBP YGS 8DV KAC
150.991157,-33.952757,Eucalyptus microcorys   4RE 7RW 8WC KQ8
150.998205,-33.945801,Callistemon viminalis   ONR G56 6ZD G54
150.991416,-33.952593,Eucalyptus microcorys   6X4 9OY 8VV SA9
150.997845,-33.945752,Callistemon viminalis   3VP UN3 CZ9 J4V
150.997515,-33.945706,Callistemon viminalis   915 JGT 91K BZT
150.99626,-33.947175,Melaleuca quinquenervia   2FA GJ5 RAP WKH
150.99215,-33.95256,Callistemon viminalis   CJZ PQR EB7 2OR
150.997351,-33.94567,Callistemon viminalis   GQD Q7U Z96 OU7
150.996275,-33.947118,Callistemon viminalis   X7E K84 KAO YJY
150.997134,-33.945614,Eucalyptus sp.   36Z W7P CYX PXT
150.991845,-33.952588,Callistemon viminalis   8AM RKO 6FB JE9
150.991517,-33.952709,Callistemon viminalis   3B2 688 TGP 69X
150.996329,-33.94686,Callistemon viminalis   M5W 5G9 T2E A3E
150.991412,-33.952774,Callistemon viminalis   NY6 CGY CXN E9Z
150.996343,-33.946788,Callistemon viminalis   H38 X1O BAF ROP
150.991114,-33.952935,Callistemon viminalis   RH7 OFV 1CF 5K1
150.996995,-33.945614,Callistemon viminalis   H1Z 8KG XAT 35K
150.990968,-33.953018,Callistemon viminalis   BJQ 9PP 3G9 1MR
150.996351,-33.946756,Callistemon viminalis   F5E DAR 96N 1BO
150.990833,-33.953093,Callistemon viminalis   27J MAY XZN R79
150.996841,-33.945608,Callistemon viminalis   XBN 5HW N99 KE7
150.990574,-33.95324,Callistemon viminalis   XT5 Z6C YAQ M6B
150.996702,-33.945584,Callistemon viminalis   A44 GDC HAB 3H2
150.996361,-33.946675,Callistemon sp.   KU2 JBM S1D T17
150.990422,-33.953327,Callistemon viminalis   B4S JRU PMC Q41
150.996367,-33.946653,Lophostemon confertus   945 ZRS TW4 YUK
150.996589,-33.945567,Callistemon viminalis   TD1 GEJ SQR 5GJ
150.990166,-33.953466,Callistemon viminalis   SVH 1EM ZOX P62
150.99645,-33.945541,Callistemon viminalis   VHT RGY AMK JFH
150.996379,-33.946622,Callistemon sp.   31N 57K 3XE ZZ5
150.989999,-33.953561,Callistemon viminalis   DY7 8JA N22 Q8P
150.996273,-33.945506,Callistemon viminalis   PF2 1EY 5GO JOH
150.996392,-33.946567,Callistemon viminalis   OMN N38 XYA DK3
150.996101,-33.945481,Callistemon viminalis   OVR 5S7 P6N C8R
150.996401,-33.946534,Callistemon viminalis   5N2 T93 O47 GMF
150.996226,-33.946692,Callistemon sp.   HJU 4JF EKT D6P
150.989768,-33.953688,Eucalyptus microcorys   FZJ P9W N95 T76
150.99623,-33.946646,Callistemon sp.   R7A DDM H5T 7G8
150.996231,-33.946618,Callistemon sp.   OAO 8UP SW7 3WU
150.989324,-33.953942,Callistemon viminalis   EW3 6C3 GUH 6KB
150.9946547,-33.9452524,Lophostemon confertus   2N8 4CR 83F 2HS
150.989277,-33.953968,Prunus x blireana cv   BVS YHP G8T QZ9
150.9947821,-33.94527855,Callistemon viminalis   HOA VN7 BX8 W32
150.996173,-33.946364,Lophostemon confertus   CSH MT1 25X 73F
150.988939,-33.954152,Callistemon viminalis   VEH UPK 9DS VDA
150.994954,-33.945311,Callistemon viminalis   KFK ZZF 6FY M8G
150.995954,-33.946335,Lophostemon confertus   X8Q 2QS 33E 6XW
150.988687,-33.954336,Callistemon viminalis   HJK EXP NTU VVV
150.995115,-33.945341,Callistemon viminalis   UWY KNV JRD J32
150.988533,-33.95453,Callistemon viminalis   D41 1DN JCE OXJ
150.988617,-33.954185,Eucalyptus microcorys   JAQ RN2 XVN GN9
150.995611,-33.945417,Callistemon viminalis   TNR CW8 5XT GSE
150.988685,-33.954153,Eucalyptus sp.   KUD A69 4EV VXY
150.988771,-33.954097,Eucalyptus microcorys   9NZ OFZ 3WP C9E
150.994467,-33.946237,Lophostemon confertus   DO5 SZJ P6D V8P
150.994839,-33.94617,Lophostemon confertus   3G1 O5C TV1 XZ8
150.994011,-33.945461,Callistemon viminalis   T2B N3W JRP W4H
150.994049,-33.945279,Eucalyptus sp.   CXC WEQ 95W 3Q9
150.995596,-33.949488,Callistemon sp.   KXS ERX 7VJ ZRV
150.994063,-33.945839,Eucalyptus sp.   X5W 96E 88D VE4
150.989116,-33.954933,Lophostemon confertus   KQN TOX K16 O4P
151.003631,-33.949688,Callistemon viminalis   3DD DR3 57R 31O
150.98932,-33.954954,Lophostemon confertus   E35 9Y8 R4V N9K
151.003664,-33.949843,Callistemon viminalis   FY8 16A AHU EJH
150.992956,-33.949069,Tristaniopsis laurina   9B3 W8W ZN9 RW5
150.989656,-33.955002,Lophostemon confertus   XB1 PV5 N21 818
150.993016,-33.949125,Tristaniopsis laurina   U2T FP4 4GB VEJ
150.993067,-33.949177,Tristaniopsis laurina   EO3 5Z9 8JO EP2
151.003688,-33.949963,Callistemon viminalis   1D4 GJY CBH N8X
150.993207,-33.94933,Tristaniopsis laurina   Q5H UCS MPJ A61
151.003747,-33.95014,Callistemon viminalis   6HE VN2 M5R G1D
150.990006,-33.954873,Callistemon viminalis   PJX JSS CTS AKP
150.990012,-33.954784,Callistemon salignus   YY3 5W6 44S 46N
150.993244,-33.949401,Tristaniopsis laurina   DCD JX3 6XU 11Z
151.003781,-33.950276,Callistemon viminalis   K3W OY6 H1V K9K
150.990044,-33.954642,Callistemon viminalis   PUR 5ZM RAE YFW
150.993296,-33.949452,Tristaniopsis laurina   XJO X22 W72 EQV
151.004118,-33.950355,Callistemon viminalis   OJJ FNM 4VM R3Z
150.990107,-33.954487,Callistemon viminalis   WMN J4K XNK SHG
150.993343,-33.949506,Tristaniopsis laurina   NEN 2EN UG1 283
151.00426,-33.950314,Tristaniopsis laurina   3QY K5N SCQ NEZ
150.993507,-33.949946,Tristaniopsis laurina   PSJ BZ9 WPE J9N
150.990257,-33.95431,Callistemon viminalis   8JA 6Z8 726 6W6
151.00434,-33.950369,Nerium oleander   C8Q 5TH U3Z 8CY
150.993292,-33.950064,Tristaniopsis laurina   PO9 FA1 NDW YXY
151.004326,-33.950485,Callistemon viminalis   SQD NS1 QG2 78H
151.004176,-33.950493,Callistemon viminalis   BE3 M7B HKM EOP
150.990661,-33.954074,Callistemon salignus   TM2 EMM M3A 8H8
151.004005,-33.950476,Callistemon viminalis   HFC R8J UPK GZE
150.990792,-33.95399,Callistemon salignus   YVX WNA 8FN TRD
150.992997,-33.950242,Callistemon viminalis   583 C4R 9D3 BEA
151.003881,-33.95062,Callistemon viminalis   4T2 69E SSS OM1
150.992889,-33.950304,Melaleuca quinquenervia   TEK OPE BUB AAU
150.991239,-33.953745,Callistemon viminalis   6GJ RZT EJA XP8
151.003943,-33.950852,Callistemon viminalis   WA4 3KM BOJ 6MC
150.991407,-33.953652,Tristaniopsis laurina   BJ8 754 HFM 21A
151.003991,-33.950996,Callistemon viminalis   COD KHW GKE 3GD
150.992742,-33.950379,Callistemon viminalis   26U WHK RYG MZ6
150.991525,-33.953578,Callistemon viminalis   VJX 79X 833 Q4N
151.003999,-33.951101,Callistemon viminalis   5DW 6ZD 44N FJK
150.992693,-33.950409,Callistemon viminalis   WTB FH2 N7A V8W
150.991952,-33.953362,Callistemon viminalis   4QU 6N4 WMK ZD3
151.004022,-33.95142,Callistemon viminalis   RQC 7UY 6MX K24
151.003882,-33.951501,Callistemon viminalis   TOZ UYC YNF GCJ
150.992116,-33.953305,Callistemon viminalis   FKE BU2 B2E 7PE
150.992395,-33.953231,Callistemon salignus   EQ1 QQS W1V C2D
150.992508,-33.953212,Callistemon salignus   6GY 22Q 4SJ ABG
150.992628,-33.953198,Callistemon viminalis   Z9G SOK 7XS UTX
150.992952,-33.953194,Callistemon viminalis   2NZ PRO 67U AZY
150.992322,-33.950614,Araucaria heterophylla   XSK QHF GDF 9F1
151.003926,-33.951314,Callistemon viminalis   Y43 DHN XT3 6P8
150.993096,-33.95321,Callistemon viminalis   NRA GP7 K1B 7J3
151.003936,-33.951205,Melaleuca styphelioides   MXP 3GE SBK QD1
151.003927,-33.951178,Callistemon viminalis   CY8 TAW KAS GZM
150.993614,-33.953281,Eucalyptus ficifolia (grafted stock)   QC8 AE2 DKH QY4
151.003921,-33.951151,Waterhousia floribunda   GOS QE2 7M1 SNG
150.99146,-33.951317,Eucalyptus sp.   UMY QQD 9A5 PFQ
150.993823,-33.95331,Eucalyptus ficifolia (grafted stock)   PMR N5C OR8 JNZ
150.993972,-33.953328,Callistemon viminalis   AFO CF8 8NV KF6
151.003848,-33.950911,Callistemon viminalis   EH6 EH2 Z25 OFV
150.994254,-33.953377,Lagerstroemia indica cv.   GF5 9BM DFJ FRU
150.994422,-33.953435,Callistemon viminalis   G17 7E7 PYH BES
150.99189,-33.951842,Eucalyptus paniculata   W5P 1KS 7JJ 43Z
151.003764,-33.950646,Callistemon viminalis   ZKD CPH MZ5 WDK
150.994619,-33.953349,Tristaniopsis laurina   1C6 1J9 9K3 4YM
151.003744,-33.950501,Callistemon viminalis   TW8 EVR SEN CYO
151.003705,-33.950388,Callistemon viminalis   WUO PNX T84 E9K
151.003662,-33.950243,Callistemon viminalis   H4U TB1 FA7 G9A
151.003568,-33.949976,Callistemon viminalis   477 63C 7MO QER
151.003536,-33.94982,Callistemon viminalis   TXO YZA WYN HHW
150.991912,-33.951854,Eucalyptus saligna x botryoides   SDD 1XR RYU 8RH
151.003514,-33.949624,Melia azadarach   2JO 882 A99 PKU
150.994978,-33.953042,Callistemon linearis   32B NBD C42 XMU
151.0035,-33.949532,Callistemon viminalis   U7V AGQ 8C7 MVZ
150.992002,-33.951985,Eucalyptus paniculata   BCO B4T 23E WZA
150.994771,-33.95337,Callistemon viminalis   T5R 8T8 SZH XJ4
150.994656,-33.953695,Eucalyptus sp.   BNS SDS AP9 6YF
150.99203,-33.952014,Eucalyptus microcorys   FD4 Y9A AZ3 ANO
150.99215,-33.952171,Eucalyptus sp.   MRH 43A 1MK HCO
150.992163,-33.952187,Eucalyptus sp.   95F BBK DTM ZAG
150.992182,-33.952209,Eucalyptus sp.   5XK 3H6 4N3 62F
150.992354,-33.9522,Callistemon viminalis   YXD BT5 MQY QDO
150.992334,-33.952174,Corymbia citriodora   EGT Z69 55J 699
150.992273,-33.952103,Callistemon sp.   7FG NZT EG8 U1K
150.992256,-33.952084,Unident / evergreen / Native   FF1 6M4 654 9RE
150.99223,-33.952062,Corymbia citriodora   855 RU3 4DO SHB
150.992209,-33.952071,Callistemon sp.   2K4 GC7 358 G55
150.992172,-33.951987,Callistemon viminalis   BE6 VZK P67 WAX
150.99215,-33.951963,Callistemon viminalis   AMO ECD CWJ 3RJ
150.992061,-33.951841,Callistemon viminalis   QFG TNN QPT OA3
150.991974,-33.951736,Callistemon viminalis   STA 4CG WES CYW
150.991801,-33.951525,Callistemon viminalis   T65 7K2 ROT 7TV
150.991717,-33.951432,Callistemon viminalis   JZR 54G 6F5 ER5
150.991676,-33.951378,Callistemon viminalis   11A FO7 D19 N4U
150.994645,-33.953966,Acacia sp. (Native & Evergreen)   EVJ 1CQ 52Q 6T7
150.991667,-33.951365,Callistemon viminalis   HQF PBR 3OD FXS
150.994678,-33.954049,Callistemon viminalis   6Z9 PZQ 6U1 1K6
150.991635,-33.951322,Callistemon viminalis   P7A 6RO RNP 6MM
150.994527,-33.954008,Callistemon viminalis   79G FJ9 K46 293
151.004115,-33.951563,Callistemon viminalis   HJM KEX EBY 3NT
150.994362,-33.95391,Melaleuca linariifolia   ZVN 4QK B6C YRQ
150.991614,-33.951283,Callistemon viminalis   KH4 119 QHF Q6P
150.994148,-33.953888,Melaleuca linariifolia   SKR GO3 QQG F2N
151.004257,-33.951639,Callistemon viminalis   8ER KO1 1QE JT1
151.003896,-33.951474,Prunus sp.   JH6 A8T FQQ HBG
150.991614,-33.951173,Callistemon sp.   6V5 F88 ORW R2P
150.99352,-33.953864,Melaleuca linariifolia   24W 9PA X8H JDK
151.003866,-33.951531,Prunus sp.   GPN M5X JY3 GAJ
150.993398,-33.953874,Unident / evergreen / Native   991 KR8 HZG PRW
151.003856,-33.951544,Prunus sp.   WP1 QXS UT3 FNH
150.991694,-33.95112,Callistemon viminalis   YSE 6RD 47M FNH
151.003814,-33.951576,Prunus sp.   WCF 9DT 36V VE4
150.991751,-33.951084,Callistemon viminalis   QFF YS5 WMW GTF
150.993361,-33.953881,Melaleuca linariifolia   ZCY 8CV RKP AFF
151.003794,-33.951587,Prunus sp.   DBJ THP GF9 1CB
151.00374,-33.951597,Prunus sp.   FGO U18 2KG NA5
150.991869,-33.951016,Callistemon viminalis   3D9 3NM 4EU M7K
151.003679,-33.951615,Prunus sp.   77C XPX TMD HT8
150.993086,-33.953936,Melaleuca linariifolia   AXH 7TJ KBP FFF
150.992795,-33.954029,Melaleuca linariifolia   2VM 3HJ 2N3 SFM
151.003621,-33.951625,Callistemon viminalis   8TW 3M4 88M 3NM
150.991992,-33.950955,Callistemon viminalis   U7J 6T3 6NJ OPE
151.003714,-33.9517,Callistemon viminalis   UBG WBG 2OQ HA5
150.992524,-33.954123,Tristaniopsis laurina   2Q8 N6D OCA 6ET
150.992094,-33.950887,Tristaniopsis laurina   4QX FEX YEC TKU
150.99226,-33.950799,Callistemon viminalis   YP4 ZRF 7TU RMY
151.003218,-33.951813,Callistemon viminalis   R44 JR3 6Y4 23Y
151.003269,-33.951703,Callistemon viminalis   TQR K4R V21 E8D
151.00308,-33.951943,Callistemon viminalis   A6E 49X 373 GAZ
150.992289,-33.950783,Callistemon viminalis   CJ3 O4F Q52 HRB
150.991347,-33.954762,Callistemon viminalis   XHX 8R1 MMG 6SU
151.003046,-33.952085,Callistemon viminalis   XQC O75 S3K X62
151.003026,-33.952254,Callistemon viminalis   3M1 5BG JGA TYM
150.992494,-33.950667,Callistemon viminalis   CFO 1WZ 4WE MTA
150.991409,-33.954621,Callistemon viminalis   Y2S QF9 1P8 FEG
150.992552,-33.950625,Callistemon viminalis   TBC 6ZX 236 AWS
150.992673,-33.950558,Callistemon viminalis   GT5 EFW 96W 2DS
150.991743,-33.954434,Callistemon viminalis   YHN XR5 GDS MM5
150.991871,-33.954356,Melaleuca linariifolia   VTG KC5 JO6 W9F
151.003108,-33.952504,Callistemon viminalis   1AO FH2 A4N N2Q
150.992205,-33.954158,Melaleuca quinquenervia   S44 3G8 DGQ EHZ
151.003419,-33.952435,Callistemon viminalis   HQD HKX 4UN QF4
150.992967,-33.950405,Melaleuca quinquenervia   XSC 9FV 7QX H12
151.003637,-33.952394,Callistemon salignus   JST CGX XVR XES
150.992131,-33.953691,Acacia sp. (Native & Evergreen)   VAW SXZ AW3 1RX
150.993046,-33.950354,Jacaranda mimosifolia   JFF ENN 45A 3NQ
151.004083,-33.952289,Callistemon salignus   T5N TOS NBY FT2
150.991706,-33.953603,Callistemon viminalis   6GM WJC E3R G2S
150.993088,-33.950337,Tristaniopsis laurina   64B UHB HR2 OOU
151.004361,-33.952244,Callistemon viminalis   VUZ D96 986 AN5
150.991436,-33.953751,Jacaranda mimosifolia   BX2 58W HJ7 KF5
150.993225,-33.950257,Callistemon viminalis   7FG VB4 GYO 765
150.991321,-33.953813,Lagerstroemia indica cv.   2V8 WXU YPP 67E
151.004777,-33.952169,Callistemon viminalis   7P8 6XB HHE 3EK
151.004932,-33.95217,Callistemon viminalis   7J1 SC3 HK9 CFF
150.991116,-33.953929,Callistemon viminalis   T3A PO7 ZP4 M6B
150.993873,-33.95014,Unident / evergreen / Exotic   4VQ MCV 3A7 P4D
150.990933,-33.954028,Callistemon viminalis   1E1 BG3 JWT 7Y3
150.990861,-33.954073,Callistemon viminalis   PHY 4T7 3U4 OYV
150.99071,-33.954155,Jacaranda mimosifolia   52R 71A 1TU NMJ
150.99393,-33.950232,Unident / evergreen / Exotic   CSC FX3 RWA 19K
150.990283,-33.954431,Flindersia australis   E81 647 SAP 9OX
150.994025,-33.950535,Callistemon viminalis   OVB 7YF PW4 162
150.990206,-33.954537,Flindersia australis   EZ2 2CU JTE 9VX
151.004435,-33.952322,Melaleuca styphelioides   V9Z 9CY P86 D1K
150.990134,-33.954777,Callistemon viminalis   AAX AAH CDM MQ9
151.003748,-33.952447,Callistemon viminalis   8H9 PYT 45T 6HU
151.003595,-33.952491,Callistemon viminalis   KK2 4RY XQE GE9
151.003424,-33.952534,Callistemon viminalis   3G3 BMC 3N4 4PH
150.991449,-33.955226,Lophostemon confertus   DU1 OGS T4K 6GM
150.991313,-33.955204,Lophostemon confertus   9OT GQM QVE R2F
151.002937,-33.952742,Callistemon viminalis   5GP ODT SBE QN4
151.002906,-33.952899,Callistemon viminalis   BF2 E3U CBV 4B3
150.993583,-33.951176,Callistemon viminalis   Q7Z T2X BZD 9JE
151.002872,-33.953107,Tristaniopsis laurina   JVQ 69F S6V BTR
150.993199,-33.951415,Callistemon viminalis   DTE YUO WRJ F93
150.993134,-33.951554,Palm sp. (Exotic)   XF7 6A7 DFM SKB
150.993036,-33.951621,Callistemon viminalis   MUT Y8N O8R 25Q
150.992903,-33.951608,Callistemon viminalis   1VD 1H2 2J7 6ZS
151.003253,-33.953338,Melaleuca linariifolia   4X2 1XC 8K6 C5J
151.003392,-33.953324,Lophostemon confertus   A1V 2XA D6E O89
151.00366,-33.953285,Eucalyptus tereticornis   M7H 6VS A3D VVW
151.004408,-33.953202,Lophostemon confertus   19A H2Z 21N RRG
151.004612,-33.953177,Lophostemon confertus   CGW JXB 52M AUO
151.004761,-33.953167,Lophostemon confertus   8WF 53N P6X O9P
151.004918,-33.953135,Lophostemon confertus   51K UNC J86 AOY
151.005442,-33.952889,Callistemon viminalis   7RB RGF NO7 RTH
151.005441,-33.952635,Callistemon viminalis   GEH KGT E4B 84R
151.005414,-33.952452,Callistemon viminalis   OEU 64D YQ4 B5G
151.005327,-33.952023,Callistemon viminalis   6M4 MHU DH1 PYW
151.005309,-33.951889,Callistemon viminalis   9SX QHY BQP Z7U
151.005248,-33.951576,Tristaniopsis laurina   PRA FBT Y38 NFG
151.005221,-33.951465,Callistemon viminalis   FQZ 9QE BQC O65
151.005196,-33.951317,Callistemon viminalis   1PV G21 C3S RAU
151.005148,-33.951171,Callistemon viminalis   P5E FYX JBD S38
150.993122,-33.951344,Callistemon viminalis   4BM MH5 TQ9 JVE
150.993237,-33.951273,Unident / evergreen / Exotic   K8K 2CA 2DD T5D
150.99337,-33.951195,Callistemon viminalis   RAK VGP PFD E8A
150.993606,-33.951047,Callistemon viminalis   V1E YXH COT WG2
150.993732,-33.950904,Callistemon viminalis   R8P GKP UHV 7XM
150.993783,-33.951037,Callistemon viminalis   M9D ZVF UQ9 HC8
150.993819,-33.951316,Callistemon viminalis   ND2 1ED 4YP Z68
151.004993,-33.950255,Callistemon viminalis   NPM K7Z 8ZF BQG
150.993846,-33.951387,Callistemon viminalis   HRB UN2 B7E VVR
151.005046,-33.950368,Callistemon viminalis   ONO 7N2 Y75 ZSO
150.993884,-33.951451,Callistemon viminalis   Q9B A7Y WDJ TWK
151.005064,-33.9505,Callistemon viminalis   322 VXT 5Y6 SO3
150.993955,-33.951529,Callistemon viminalis   8N4 R2M H41 1UH
150.994044,-33.951606,Callistemon viminalis   EXM EV9 6OM AUA
151.005131,-33.950854,Casuarina cunninghamiana   Y1V K86 KWB P7F
150.994114,-33.951742,Callistemon viminalis   1NT 1HC 6QO 3QA
150.994133,-33.951851,Callistemon viminalis   KV4 7Y7 B6F B2O
150.994156,-33.952022,Callistemon viminalis   JKE 76E NSZ 3CB
150.994058,-33.952052,Callistemon viminalis   M8H 7XA NXQ MCY
150.99404,-33.951945,Olea europaea   2E8 V18 MMS RCA
150.994045,-33.95191,Olea europaea   EKG 48C RBB HXR
150.993926,-33.951663,Callistemon viminalis   662 XN5 JPN AHD
151.003077,-33.949445,Jacaranda mimosifolia   TW9 E4O F2J 3RX
150.993894,-33.951595,Callistemon viminalis   JAU S12 RD8 CK3
151.002885,-33.949483,Tristaniopsis laurina   WC9 EEF QBB XKP
150.993765,-33.951465,Callistemon viminalis   KWW EFQ SZK GVO
151.002794,-33.949477,Pistachia chinensis   C5W 6Y4 PQ6 SWH
150.993699,-33.951367,Callistemon viminalis   KTM 193 OBS U22
151.002526,-33.94971,Callistemon viminalis   PZK 1NQ OZK WAW
151.002645,-33.94969,Callistemon viminalis   FMD 567 UDC Y6V
151.002582,-33.949853,Callistemon viminalis   381 GO8 Z81 XVQ
151.002695,-33.949817,Callistemon viminalis   FHB J1H CNG 5CK
151.002709,-33.949972,Callistemon viminalis   FFO VA5 SE8 ZZY
151.002605,-33.949993,Callistemon viminalis   27H 3R2 FKZ 8V4
151.002744,-33.950064,Callistemon viminalis   N9M 2AJ C2X PU8
151.002755,-33.950154,Callistemon viminalis   2UF VYB A32 6OR
150.993841,-33.950924,Callistemon viminalis   GJ6 D1Y 74G 5DJ
150.993918,-33.950818,Callistemon viminalis   MWM ED8 891 9CP
151.002807,-33.950315,Callistemon viminalis   GFD 3OB AYB 814
151.002683,-33.950324,Callistemon viminalis   6KH 6EC HHY QNQ
150.993963,-33.950762,Callistemon viminalis   6S4 CQ7 QKD TDT
151.00283,-33.950471,Callistemon viminalis   82R PVH ENZ 2Q7
151.002739,-33.950605,Callistemon viminalis   1YG E68 13X UVN
150.994165,-33.950517,Callistemon viminalis   32K C69 MCB JDE
151.00291,-33.950738,Callistemon viminalis   M68 5A9 47O DNT
151.002823,-33.950861,Callistemon viminalis   8JK 2PF 611 K6T
151.002978,-33.950998,Callistemon viminalis   QWZ ZNH H5A ERM
151.002854,-33.950965,Callistemon viminalis   N5F XA3 YN3 AVA
150.99483,-33.950396,Callistemon viminalis   78X WVZ Z7N T6G
151.002901,-33.951136,Callistemon viminalis   72Q PVK 5TK UEM
151.003002,-33.951108,Eleaocarpus reticulatus   O9K VMB MF2 8VE
150.994868,-33.950562,Callistemon viminalis   UUY V1M Y6U XQU
151.002953,-33.951373,Callistemon viminalis   UZY 9KT GNX 8R6
151.002962,-33.951494,Eucalyptus ficifolia (grafted stock)   FC4 KRY A5N XH8
150.994964,-33.950333,Callistemon viminalis   H49 C61 X9P R2P
150.995009,-33.950523,Callistemon viminalis   151 YMO GQB BCY
151.002992,-33.951615,Eucalyptus ficifolia (grafted stock)   CYC DMG FGH OE3
151.00298,-33.951871,Callistemon viminalis   JE4 GB7 586 ORA
151.002962,-33.951964,Callistemon viminalis   S84 YKF 8D8 S3W
150.992127,-33.955138,Eucalyptus ficifolia (grafted stock)   EF6 X7S 3AB 5VW
151.002944,-33.952111,Callistemon viminalis   6YW D1P KD9 4D6
150.995055,-33.950741,Tristaniopsis laurina   CCM 2TF QMB 4ZY
151.002917,-33.952252,Callistemon viminalis   4WV 8DS NTX PBN
150.991814,-33.955259,Leptospermum petersonii   DCW DHM A4U NF6
150.995064,-33.950848,Tristaniopsis laurina   4DU RDO TGZ 3D9
151.002884,-33.952425,Callistemon viminalis   8AT XSG XUV XOA
151.00287,-33.952599,Callistemon viminalis   UDU 29T OUN YDE
150.992575,-33.954974,Leptospermum petersonii   AHS H2K M51 V8P
151.002825,-33.952777,Waterhousia floribunda   BEC YWX 81W WY7
150.994908,-33.950798,Eucalyptus sp.   A6C Q2H VJX 7H3
150.99272,-33.954915,Leptospermum petersonii   WAA Y8D NBN S8J
151.002811,-33.952869,Nerium oleander   OZB CTC H9W E7G
150.994932,-33.95093,Jacaranda mimosifolia   OTZ 7U8 72C AF8
150.99282,-33.954878,Syzygium luehmannii   T78 8TP V7R 769
150.994953,-33.951066,Callistemon viminalis   BSE N45 J6B V1S
150.993453,-33.954648,Eucalyptus sp.   PY7 ENA 43T 7V3
150.994371,-33.954299,Eucalyptus ficifolia (grafted stock)   AX6 2DK DV9 82U
151.002237,-33.949528,Acacia sp. (Native & Evergreen)   RWZ YHW C9S ZJC
151.002072,-33.949568,Tristaniopsis laurina   O7Q WYN E44 4KX
151.001906,-33.949557,Pistachia chinensis   RYY 3T6 29Q WGC
151.001502,-33.949616,Eleaocarpus reticulatus   4NV 431 M3E GCY
150.994285,-33.954467,Callistemon salignus   4E5 CT1 V2V 8WB
150.995106,-33.951225,Callistemon viminalis   OOK 91S OV5 7WP
151.002054,-33.953435,Jacaranda mimosifolia   ZQ5 SE9 EXX Q8Y
151.0024,-33.953436,Lophostemon confertus   PWZ C2R ZPV FOM
150.995162,-33.951507,Callistemon viminalis   HPV ERA P4N A5J
151.002576,-33.953424,Lophostemon confertus   BHN EHV JVR KGX
150.995163,-33.951619,Callistemon viminalis   EGQ F58 Z1H 2CU
150.996267,-33.95158,Eleaocarpus reticulatus   MPP Z2S 1HO AX1
150.996238,-33.951348,Eleaocarpus reticulatus   UBV Y5U 4Y5 29W
150.996227,-33.951309,Macrozamia communis   DTC KS9 96V MBW
150.996219,-33.951251,Callistemon sp.   RCX 2RR UMZ D1W
150.996374,-33.951134,Backhousia citriodora   ESB 9E2 MON 47T
150.99677,-33.951084,Backhousia citriodora   CX5 1KV 1UY KKW
150.996867,-33.951079,Backhousia citriodora   G84 NG7 H97 E69
151.001752,-33.949695,Liquidambar styraciflua   GD8 5YG 693 TC3
150.997002,-33.951062,Backhousia citriodora   9UK 7XB FZJ HPB
151.001781,-33.949884,Callistemon viminalis   OGF 5A6 O5F OS5
151.001816,-33.950092,Callistemon viminalis   75A ETN 9UR K32
151.001839,-33.950203,Callistemon viminalis   6D4 GOG 2AZ OHC
151.001858,-33.950255,Jacaranda mimosifolia   K3P UGC OYM Y49
151.001885,-33.950349,Tristaniopsis laurina   R68 3BX JWT KAO
151.001886,-33.950636,Callistemon viminalis   PZR TV2 W1H GFO
151.002083,-33.951322,Callistemon viminalis   98V JC9 324 BXG
151.002126,-33.951443,Callistemon viminalis   YAB 61U SE4 VJZ
151.002127,-33.951537,Callistemon viminalis   RGZ Y96 XYT SMA
151.002097,-33.95167,Callistemon viminalis   GAY CC1 VXG MMG
151.00204,-33.951902,Callistemon viminalis   G3G O88 UKA ZYG
151.002034,-33.952025,Callistemon viminalis   2KM VZ7 R15 V2V
151.002023,-33.952047,Jacaranda mimosifolia   6NR RGS 1HN 6OT
151.002014,-33.952112,Callistemon viminalis   KEC UZW 3MY AR4
150.996194,-33.953012,Callistemon viminalis   VK5 YHK SOK 3NV
151.001963,-33.952435,Callistemon viminalis   PDM TQU NJK PMP
150.995988,-33.953227,Lophostemon confertus   89W TD6 965 SJK
150.995972,-33.953286,Lophostemon confertus   96T X4M YNK 24T
151.00188,-33.952983,Lophostemon confertus   PBM AHN D78 3SW
151.001841,-33.953105,Callistemon viminalis   OKX 4AH ZEF 6BH
151.001822,-33.953192,Jacaranda mimosifolia   AGN BMA 3EQ PKM
150.995941,-33.95348,Callistemon viminalis   E3K C3Q 2GJ XC7
151.001822,-33.953263,Callistemon viminalis   3DN 3NT 4KS 5ME
150.995927,-33.953589,Lophostemon confertus   X8M O46 67D HRH
150.997628,-33.950006,Eucalyptus moluccana   Q7P WMB GRN H4A
150.995905,-33.953699,Lagerstroemia indica cv.   7P8 NEE UVA 3Y6
151.001687,-33.953242,Lophostemon confertus   DG7 G3N UKM YSO
150.995897,-33.953771,Erythrina crista galli   QCQ G8C 8AA 46V
150.9971,-33.950059,Tristaniopsis laurina   9C2 DHQ EFH NW7
151.001718,-33.953041,Jacaranda mimosifolia   5XP 83O G2C YGJ
150.996086,-33.953533,Callistemon viminalis   M93 P2J OWN RAZ
151.001737,-33.952927,Callistemon viminalis   9VV O93 7H8 WUT
150.996066,-33.953619,Jacaranda mimosifolia   CJ8 RJ1 H1J 7FH
150.996616,-33.950102,Eucalyptus sp.   F7J DNU XCK VZH
151.001775,-33.952739,Callistemon viminalis   CJZ V8V 668 9T5
151.001801,-33.952614,Callistemon viminalis   KXK TH8 ZHV KO6
151.001808,-33.952533,Callistemon viminalis   3SG GV6 43D DDN
150.996187,-33.95016,Melaleuca quinquenervia   7ZJ EWX HPT OB6
150.99572,-33.953931,Erythrina crista galli   FMC S15 5CU XBW
151.00182,-33.952439,Eleaocarpus reticulatus   ENU PWK 5GX O4E
150.995447,-33.953978,Eucalyptus ficifolia (grafted stock)   U22 PDC 4NV FOK
151.001826,-33.952385,Eleaocarpus reticulatus   2KS 7TE 9T9 WF8
151.001834,-33.952365,Jacaranda mimosifolia   71Z M8G H3O WT9
150.995191,-33.954034,Eucalyptus ficifolia (grafted stock)   4N8 MRO PZ1 DKK
151.001841,-33.952329,Callistemon viminalis   QJQ TVP CJJ JUF
151.001872,-33.952231,Callistemon viminalis   P79 POZ NSB CBA
150.994903,-33.954104,Callistemon viminalis   NXT BMA 3UH JXR
151.001869,-33.952184,Callistemon viminalis   7KJ NM8 JPJ E9U
151.001877,-33.952072,Callistemon viminalis   TOM VDH FE7 OOB
150.996078,-33.95032,Other species (Native & Evergreen)   8R5 V95 3JQ NCD
151.001901,-33.951963,Callistemon viminalis   2BM N2G 3E6 6BA
151.00193,-33.951848,Callistemon viminalis   4H2 9O8 KF3 NWZ
150.996086,-33.950371,Tristaniopsis laurina   YWS UAG EUO DFC
151.00197,-33.951616,Callistemon viminalis   AGA XTF XCT OM6
150.995929,-33.950296,Tristaniopsis laurina   ZY6 KN9 QJ9 P28
151.001995,-33.951491,Callistemon viminalis   6K3 J7M S62 HEU
150.994659,-33.95433,Eucalyptus paniculata   2RZ AHK NWR B7K
151.001977,-33.951377,Tristaniopsis laurina   VBG ZXW 3YX XFG
150.994836,-33.954256,Eucalyptus sp.   X29 694 AK7 CCE
150.995944,-33.950398,Eucalyptus scoparia   QHJ MNR 6AM AMR
151.001883,-33.95119,Callistemon viminalis   G3G G7X DDO CNM
151.001874,-33.951086,Callistemon viminalis   13C AN3 GTS 6F6
151.001838,-33.950981,Callistemon viminalis   ET3 NUC FBA PAA
151.001829,-33.950909,Callistemon viminalis   556 GG9 BAP 817
151.001814,-33.950824,Callistemon viminalis   NDR 77M 66X JW8
150.995954,-33.950553,Syzygium sp.   QHD 4RJ 1FR PTR
151.001807,-33.9507,Tristaniopsis laurina   SBH MSR 4MN KU9
151.001792,-33.950614,Tristaniopsis laurina   83B XD5 YMH Q18
151.001774,-33.950542,Callistemon viminalis   H9T 4WF GNO QWH
151.001757,-33.950388,Callistemon viminalis   RWS EAE Q86 EU8
150.996021,-33.950932,Callistemon viminalis   DBP GTW ABG 2QT
151.001752,-33.950295,Lagerstroemia indica cv.   E3R A5H 7XK OGC
150.996025,-33.950968,Callistemon viminalis   82A 9AJ 14W WNF
150.995549,-33.954089,Callistemon viminalis   V3N FUD GWE 576
151.001704,-33.95011,Callistemon viminalis   3GF HZD V9T EMH
150.995659,-33.954063,Eucalyptus moluccana   ZJV E1R 65F 9WC
150.995739,-33.954047,Eucalyptus moluccana   7UQ XWB QG8 2WZ
151.001685,-33.949993,Callistemon viminalis   TKN XFN AO2 DTQ
150.995703,-33.954055,Jacaranda mimosifolia   K2K TZ7 QAR AM6
151.001673,-33.94986,Callistemon viminalis   KKT QCC 13P DGK
151.001669,-33.9498,Callistemon viminalis   9Q8 KQW 4R8 8AO
150.995837,-33.954026,Eucalyptus sp.   KG1 V85 J5Z EC4
150.995984,-33.954002,Eucalyptus sp.   3B1 B2T 8ZM 1YS
151.001662,-33.949706,Eleaocarpus reticulatus   JV1 1KW SME F48
150.996369,-33.953932,Acacia sp. (Native & Evergreen)   TAJ 7FH TWO 71F
150.996416,-33.953926,Eucalyptus sp.   2PM S1F PFN GJB
150.996551,-33.953896,Eucalyptus ficifolia (grafted stock)   XHM FP3 76C PMK
150.99604,-33.951055,Eucalyptus crebra   V8P NVD BM1 7T8
150.996067,-33.95132,Olea europaea   7V6 GZN 3PB 8Q4
150.996446,-33.953795,Callistemon salignus   Y3X C5A GSO KBR
150.996628,-33.953756,Eucalyptus ficifolia (grafted stock)   1CQ MOQ 5M3 V5S
150.997459,-33.953688,Eucalyptus sp.   QSJ WDH JKZ 69Z
150.997615,-33.953686,Eucalyptus sp.   BOF W8Z RZY AV7
150.997953,-33.953667,Eucalyptus ficifolia (grafted stock)   YX1 BV6 NKR RUV
150.99607,-33.951347,Olea europaea   244 QON 7R4 3C2
150.99609,-33.951436,Syzygium sp.   9TR 7ZD EM6 O2Q
150.996113,-33.951552,Syzygium sp.   O51 A97 NCQ 2ED
150.996121,-33.95164,Callistemon viminalis   Y26 XNC 1UP 8D9
150.996164,-33.952064,Callistemon viminalis   TRG PZR N31 SJW
150.996123,-33.952197,Eucalyptus sp.   US9 1JQ 9V7 FS3
151.001174,-33.94964,Jacaranda mimosifolia   B42 X9G E6P D7F
150.996093,-33.95245,Eucalyptus sp.   K2C 24Y 7QU B5J
151.001103,-33.94964,Schinus areira   C56 WBZ VYE 9HE
150.995891,-33.952802,Lophostemon confertus   6FC Q3F RSR HD2
151.00098,-33.94967,Waterhousia floribunda   NBP KRZ JE8 KRV
150.996088,-33.95255,Eucalyptus sp.   NSA Z52 JVJ O77
150.99595,-33.952815,Acacia decurrens   CQ5 DX6 EVH QOY
151.000735,-33.949962,Callistemon viminalis   N6H D7T 3OM JX2
151.000871,-33.950071,Callistemon viminalis   QVW MVO Z6P 8PJ
150.996074,-33.95261,Eucalyptus sp.   2D1 SRY FQJ 484
151.0007769,-33.95012075,Callistemon viminalis   5VS 79Q 1NM 3O6
151.0008855,-33.95020502,Callistemon viminalis   P6Q AK9 545 3B2
151.00092,-33.950367,Callistemon viminalis   FC4 VWW 5MH P1X
151.0008074,-33.95038329,Callistemon viminalis   VK2 XP6 Z6F HDU
151.0009217,-33.95047924,Callistemon viminalis   SQN 945 ABZ 35N
151.0008282,-33.9505179,Callistemon viminalis   HQF 12Q Q6Q 329
151.000953,-33.950622,Callistemon viminalis   W9E HR9 426 9SQ
151.0008426,-33.95063972,Callistemon viminalis   946 AED JU5 2HH
151.0009605,-33.95075055,Callistemon viminalis   647 FWC 78X ZG3
150.996325,-33.951997,Magnolia grandiflora   M9A QP7 WNN VMC
151.00086,-33.95074151,Callistemon viminalis   AWQ TCC YDD 3HJ
151.00097,-33.950794,Callistemon viminalis   S53 POB DTA UEC
150.996315,-33.952072,Eleaocarpus reticulatus   VA9 OF4 TK1 GM5
151.0009817,-33.95088029,Callistemon viminalis   XNC KT9 9BP MDY
150.996264,-33.952328,Jacaranda mimosifolia   UDT ZYF X5M 75H
151.0009848,-33.95091366,Callistemon viminalis   SY9 GN5 ABG SQN
151.0008627,-33.95080659,Callistemon viminalis   MF8 QME SPC UKK
151.0008812,-33.95088251,Callistemon viminalis   7BM E4Q 42Q N47
150.996232,-33.952474,Lophostemon confertus   TFB 56Z R6W X7B
151.0008855,-33.95093758,Callistemon viminalis   BPX 9NU 8RF M8K
151.000997,-33.951017,Callistemon viminalis   BK6 XEH OVS C7U
151.0009023,-33.95104966,Callistemon viminalis   RCG R4V JT6 F7W
150.995862,-33.952659,Lophostemon confertus   E1Z H8Y WQS V9H
150.995771,-33.95265,Lophostemon confertus   S1B 6BF JA3 886
151.0009194,-33.95117565,Callistemon viminalis   EJE F3J FUP 5OF
150.99567,-33.95264,Lophostemon confertus   OE8 SSK 6NV 383
151.001024,-33.951189,Callistemon viminalis   VGS DEO N3E OGB
150.995427,-33.952612,Jacaranda mimosifolia   R27 AUK 8M2 P57
151.001034,-33.951312,Backhousia citriodora   1GW O1T PEC PVQ
151.000955,-33.951451,Callistemon viminalis   JM3 8KV O2G AAJ
151.0010672,-33.9515778,Callistemon viminalis   RF6 YKJ A15 U17
150.994409,-33.952483,Citrus sp.   J94 KMU 392 4OR
151.000926,-33.95165,Callistemon viminalis   R12 TVH UA3 GXN
151.001042,-33.951698,Callistemon viminalis   G37 OA8 OKE 2BK
150.9943,-33.952468,Unident / deciduous / Exotic   RA5 64D BRS YBN
151.001028,-33.95184,Callistemon viminalis   YXB B5U 3M6 E9A
151.0008832,-33.95199915,Callistemon viminalis   K2A EUK 91S GOU
150.993538,-33.952371,Jacaranda mimosifolia   KHU NU3 XZG 8F5
151.000957,-33.952132,Callistemon viminalis   K5Q UTB R6J XZQ
150.99355,-33.952373,Unident / evergreen / Exotic   165 7KP 2UJ HG4
151.000841,-33.952104,Callistemon viminalis   N45 FCD MVK K7A
151.000794,-33.952295,Callistemon viminalis   NM8 FKW C9Q TTP
151.000894,-33.95246,Callistemon viminalis   B98 CW1 11K 2YF
150.992988,-33.952347,Prunus cerasifera 'Nigra'   D32 XEX CNG QCA
151.000765,-33.952455,Callistemon viminalis   APO SFC 7A7 5VE
150.992905,-33.952358,Prunus cerasifera 'Nigra'   8BB RT9 Q85 UM4
151.000853,-33.952709,Callistemon viminalis   Y1Z VZR NSY 5H3
150.992746,-33.95237,Melaleuca quinquenervia   Y55 91C SOK QPH
151.000706,-33.952785,Callistemon viminalis   FF7 UN4 R4G YUW
151.0006743,-33.95296558,Callistemon viminalis   XU7 XEG 76M QN8
151.000808,-33.952916,Callistemon viminalis   T1M PG1 XEJ 3KE
150.992386,-33.952535,Callistemon viminalis   6ZT 4HM EVA RF5
150.992533,-33.952528,Callistemon viminalis   ZU3 OOT 7AM QQJ
151.000853,-33.953286,Lophostemon confertus   G87 91A JUJ JSM
151.001013,-33.953316,Lophostemon confertus   XMP 9GO VY1 Z96
151.001218,-33.953347,Lophostemon confertus   E64 WSM 3KD V6R
150.992716,-33.952517,Tristaniopsis laurina   RBG VB7 TCD FN4
151.001569,-33.953377,Lophostemon confertus   MXF QWD WX7 OMO
150.99335,-33.952477,Tristaniopsis laurina   ASC 6N1 QF4 X2Z
150.993432,-33.952494,Callistemon viminalis   JRZ 5MF SFN PZV
150.993594,-33.952509,Lophostemon confertus   1C3 RMY PXK 6OM
150.993806,-33.952543,Callistemon viminalis   TD2 UPE EYN OSK
150.9941,-33.952575,Callistemon viminalis   33D 85R VV1 UER
150.99461,-33.952646,Callistemon viminalis   DRA 2NR BYR S1F
150.994698,-33.952657,Callistemon viminalis   XD1 P87 66S 9F4
150.994778,-33.952665,Melaleuca quinquenervia   5JD K71 A13 PNN
150.994828,-33.952673,Callistemon viminalis   54T X2C 7DH 4PR
150.995565,-33.952762,Lophostemon confertus   482 621 YUW SRA
150.995678,-33.952776,Lophostemon confertus   848 686 SE3 4TT
150.996341,-33.952861,Lophostemon confertus   M8T FE1 9CX BPS
150.996582,-33.952883,Lophostemon confertus   S9H ZQ7 8R8 O2X
150.996774,-33.952906,Lophostemon confertus   UPV A38 8NY 3GJ
150.996921,-33.952932,Lophostemon confertus   FHM 6YN J6T E7R
150.996979,-33.95294,Callistemon viminalis   TU8 DC2 A4P TRV
150.997419,-33.952992,Lophostemon confertus   8RX OSJ V5Q BHD
150.997596,-33.953016,Lophostemon confertus   7BE O8B JGS RFB
150.9977,-33.953022,Lophostemon confertus   AZ9 OOU PZV UPH
150.997793,-33.953044,Lophostemon confertus   5KJ XZD H48 QM3
150.997955,-33.953057,Lophostemon confertus   A5N D4F NYQ PC3
150.997046,-33.952821,Lophostemon confertus   2C7 CF1 SJ6 7FW
150.99729,-33.952851,Lophostemon confertus   4QU 3AW GO1 X4Z
150.996527,-33.952739,Lophostemon confertus   G4R APP OVS ABX
150.996463,-33.952739,Lophostemon confertus   3NB 3OS D96 BA7
150.996347,-33.95272,Lophostemon confertus   7PK F3X Y2U 4DT
150.997953,-33.95082,Tristaniopsis laurina   7AB CFE M5X 8F1
150.997934,-33.95087,Unident / deciduous / Exotic   TGS 6CW H8M 9KP
150.997912,-33.951,Callistemon viminalis   UGZ 4OU Y4N MOT
151.000393,-33.949737,Callistemon viminalis   5VM F6P 9NY PM4
150.997753,-33.951098,Eucalyptus sp.   PBP J5T 5R4 PZR
150.999761,-33.949904,Callistemon viminalis   UU9 MPH SVC D2S
150.999809,-33.950228,Callistemon viminalis   FMW ZNM ZAP QXC
150.999924,-33.950203,Callistemon viminalis   QBN 171 W68 HPF
150.999844,-33.9504,Callistemon viminalis   ANT FNJ MHS BAK
150.997703,-33.951357,Eucalyptus nicholii   NNW A8R W4T M9P
150.999948,-33.95032,Callistemon viminalis   BZY YKQ 85R BE8
150.999949,-33.950364,Tristaniopsis laurina   ZFC XGG 2SJ OS8
150.999874,-33.950545,Callistemon viminalis   VUO GB2 N35 12X
150.997635,-33.951698,Leptospermum petersonii   CTM MZ5 W5Q 3NG
150.999897,-33.950721,Callistemon viminalis   PGM TT4 3OD YGB
150.997633,-33.952892,Lophostemon confertus   4R7 VA8 EDE 7UZ
151,-33.950734,Callistemon viminalis   W4X HA8 REF QH8
150.99768,-33.952903,Lophostemon confertus   Q9D 965 AD8 P5N
151.000047,-33.951003,Callistemon viminalis   3ZO NTA V84 EAX
151.000075,-33.951151,Callistemon viminalis   SFV 2AT OQX E33
150.998001,-33.952942,Lophostemon confertus   ACA 8TR BH6 VGG
150.99772,-33.952086,Eucalyptus saligna x botryoides   DRF CBO ZU6 2QP
151.000069,-33.95121,Tristaniopsis laurina   M1M TNU OVF AKV
150.998195,-33.952961,Lophostemon confertus   WMO 9C5 EEH 6QK
150.999945,-33.95115,Callistemon viminalis   KRJ R8Y 93S N15
150.999951,-33.951287,Callistemon viminalis   145 EYA 72A QRN
150.997661,-33.952392,Magnolia grandiflora 'Little Gem'   58D Q3N NCG AVH
150.998456,-33.953,Lophostemon confertus   2N8 KWS XDK DM3
150.999988,-33.951429,Callistemon viminalis   T9D WF6 8O4 THQ
150.998512,-33.953008,Lophostemon confertus   UDD HG4 BB7 PA1
150.99767,-33.95236,Melaleuca sp.   Z94 QQJ NA2 VFU
151.000116,-33.951425,Callistemon viminalis   4S4 H7P 7PC HPC
150.998993,-33.953065,Lophostemon confertus   HXX TBM RAF J99
150.999126,-33.95308,Lophostemon confertus   OW3 UMO 4HD ECW
151.000005,-33.951559,Callistemon viminalis   ESQ NZ6 A14 79X
151.000124,-33.951544,Callistemon viminalis   OBQ NPJ P6J Y96
150.997631,-33.952531,Eucalyptus tereticornis   3K3 QV7 7B6 6ME
150.999351,-33.953109,Lophostemon confertus   MYF 4GR NSH 776
151.000012,-33.951709,Callistemon viminalis   VXP 3DR W5B A1G
150.99948,-33.953125,Lophostemon confertus   CSP 6PH M5S U5Y
151.000116,-33.951809,Callistemon viminalis   G7N G5S KJF HSQ
150.997584,-33.952759,Tristaniopsis laurina   CYO AP3 45F NWO
150.999628,-33.953136,Lophostemon confertus   Q4T Z51 3NB FVX
150.999797,-33.953159,Lophostemon confertus   7KT 472 ZWS BBN
151.000065,-33.952089,Callistemon viminalis   AEU PFG PPK DMO
150.997451,-33.952705,Callistemon viminalis   VJ8 Y4E Y5Q 11A
150.999951,-33.952066,Callistemon viminalis   BGP 52V 54V EUH
150.999935,-33.953186,Lophostemon confertus   REJ 72V 4X6 MKO
150.999949,-33.95221,Callistemon viminalis   AN4 YN9 CEB SNJ
151.000121,-33.953207,Lophostemon confertus   HHE KQ9 6Y3 1H9
151.000029,-33.95237,Callistemon viminalis   7RB J5O EXO TTR
151.00027,-33.953227,Lophostemon confertus   6OP WTN NB7 WRF
150.999965,-33.952465,Callistemon viminalis   C3H WVO 7UU O44
151.000037,-33.95252,Callistemon viminalis   VYV B27 PN5 72O
150.998659,-33.952833,Eucalyptus sp.   55G WP7 6DK 6FV
151.000124,-33.952563,Callistemon viminalis   6VE V2D 2Q9 SCZ
151.000678,-33.953421,Lophostemon confertus   71O FYT 9GM HNU
151.000214,-33.952486,Callistemon viminalis   S4H YOG WDS 21U
151.000568,-33.953397,Lophostemon confertus   G3W KDM J25 KV8
151.000271,-33.952607,Callistemon viminalis   JHX W4G 2R1 ZR4
150.998697,-33.952564,Tristaniopsis laurina   O48 Y7C ZUW UMA
151.000347,-33.952503,Callistemon viminalis   AQM P4S QBO XWC
151.000603,-33.95255,Callistemon viminalis   2WU JMW HU1 OOU
151.000388,-33.953381,Lophostemon confertus   J7Q OEN AJX 75X
151.000189,-33.953357,Lophostemon confertus   D44 WQM 121 MMF
151.000557,-33.95265,Callistemon viminalis   1EU SAX J5F REF
151.000055,-33.95333,Lophostemon confertus   TF3 MZ6 P82 VGX
150.998854,-33.952535,Lophostemon confertus   P4U AT1 W87 WT6
150.999935,-33.953315,Lophostemon confertus   JQO G83 OK7 7CT
150.998893,-33.952398,Lophostemon confertus   4BN OTR TS4 4BK
150.999814,-33.953283,Lophostemon confertus   E3H ABP ZZH M64
150.99974,-33.953283,Lophostemon confertus   86E MUY OKO FDR
150.998907,-33.952279,Lophostemon confertus   U8Q 8NZ W9H 9TB
150.999602,-33.953267,Lophostemon confertus   YMX V9F 59X PRZ
150.999412,-33.949835,Eucalyptus paniculata   635 MEF DF4 HJR
150.999197,-33.949853,Tristaniopsis laurina   4ZJ MEH ZC5 PYC
150.998932,-33.952156,Lophostemon confertus   QSH 1H1 BSP 9HC
150.998756,-33.95223,Lophostemon confertus   YGD E82 QSK PHU
150.998735,-33.952374,Lophostemon confertus   FWH MPO UBP 9WA
150.999454,-33.953251,Lophostemon confertus   272 5KM 1GQ AVT
150.999331,-33.953231,Lophostemon confertus   YXP QRJ B3N JMV
150.998785,-33.952073,Eucalyptus sp.   NPR 4DD OOX 8ZF
150.998814,-33.951954,Lophostemon confertus   171 SFR ATT S8X
150.998949,-33.952009,Nerium oleander   AEP UUE FUY PUB
150.998977,-33.95189,Lophostemon confertus   2CC MGR 6K8 RWW
150.998979,-33.951875,Eucalyptus ficifolia (grafted stock)   UJ9 7GV G25 P5J
150.998993,-33.951788,Callistemon viminalis   O1B HSK U5K V62
150.999017,-33.951652,Callistemon viminalis   D5A S42 PZD BFR
150.999041,-33.951501,Callistemon viminalis   ABP 53G MGU 452
150.998866,-33.951539,Callistemon viminalis   8J9 P91 HMF FAF
151.001152,-33.953464,Lophostemon confertus   K1K 4UF KUS 5FV
151.001305,-33.953489,Lophostemon confertus   FSQ Q88 Z1K XMG
150.998896,-33.951391,Eleaocarpus reticulatus   71B Y9C T2J NQM
151.001392,-33.953495,Lophostemon confertus   KJX JJK SFR MMB
151.001485,-33.953512,Lophostemon confertus   N7Q YX8 4FP J1U
150.998929,-33.951108,Eleaocarpus reticulatus   344 NKX AZJ UVD
150.999093,-33.951068,Eucalyptus sp.   BD3 YVR FQ7 FDZ
151.001602,-33.95353,Lophostemon confertus   8GD 74E 4YA G43
150.999085,-33.951092,Eleaocarpus reticulatus   ZCF 1PD 2YY JPS
151.00174,-33.953542,Lophostemon confertus   AYE 6P8 MKW R32
151.001854,-33.95354,Lophostemon confertus   78K 2TJ VAB ZH3
150.999072,-33.951217,Callistemon viminalis   ADD FSZ N7B QDE
150.99906,-33.951344,Callistemon viminalis   X3Y 617 A7O QC6
151.00197,-33.953564,Lophostemon confertus   984 D8X 4Y8 JZA
151.002123,-33.953608,Eucalyptus microcorys   73M KQA YOA ZQX
150.999099,-33.950953,Eleaocarpus reticulatus   PPD PZW RX5 HMM
150.999132,-33.950812,Lophostemon confertus   41X KRY GGA WEG
151.002139,-33.953609,Casuarina glauca   914 YS2 RDD 6FM
151.002154,-33.953611,Casuarina glauca   5NN EDO 5K6 F6R
151.002168,-33.953612,Casuarina glauca   ZQQ E9T C86 HSK
150.998989,-33.95065,Eleaocarpus reticulatus   NVO 2R8 JFD 3J4
151.002187,-33.953611,Casuarina glauca   AG5 EJN ZFY 784
151.0022,-33.95361,Casuarina glauca   PZO NXH QJT 67T
150.999129,-33.950626,Callistemon viminalis   4PP VZH G3O K67
151.002214,-33.953611,Casuarina glauca   O4B 9GW JJX T1D
150.99901,-33.950399,Callistemon viminalis   DMX 6ST 7WC XDK
150.995004,-33.951438,Tristaniopsis laurina   RHJ YCR A39 CRG
150.995017,-33.951574,Eucalyptus sp.   MCM 1P7 DXN 5TR
150.9952,-33.951792,Tristaniopsis laurina   SEP E1B VYV 5YR
150.995186,-33.9517,Callistemon sp.   OWT UEM C1F 618
150.995036,-33.95167,Callistemon sp.   JZV JE8 OTW 8RH
150.995043,-33.951726,Lagerstroemia indica cv.   ENJ 9O9 Y1Z GPF
150.995062,-33.952234,Jacaranda mimosifolia   VZH ZT2 PXK 5O9
150.99505,-33.952368,Jacaranda mimosifolia   W66 AER M5A G7S
150.995177,-33.952393,Jacaranda mimosifolia   FON F7S 6FX JA7
150.995217,-33.952228,Jacaranda mimosifolia   663 EFX 97O O9M
151.002178,-33.953603,Eucalyptus tereticornis   C8U YQ4 7FP DMN
150.995228,-33.952099,Tristaniopsis laurina   5U6 DAN DG7 X6T
151.002221,-33.953612,Casuarina glauca   RK1 SG9 AEH C8C
151.002227,-33.953612,Casuarina glauca   AWA O25 959 6CZ
151.002233,-33.953613,Casuarina glauca   YOM 2RE URH U2O
151.002239,-33.953614,Casuarina glauca   4HU WO6 ZHJ BZ2
151.002245,-33.953604,Eucalyptus microcorys   EVF COA PQQ WH5
151.002251,-33.953614,Casuarina glauca   5WY WJ7 HXH O1H
151.002258,-33.953614,Casuarina glauca   UTO WP8 88V NHU
151.002265,-33.953615,Casuarina glauca   S2F 9OM X6K 95S
151.002273,-33.953615,Casuarina glauca   BGN XXB BZM P3P
151.002279,-33.953616,Casuarina glauca   CK9 T2V 2WT M3O
150.991395,-33.955341,Lophostemon confertus   WSW QCC NRV T83
151.002286,-33.953616,Casuarina glauca   A4P QJ6 ST6 JR9
150.991225,-33.955329,Lophostemon confertus   VG3 5EQ NXK MAR
151.002292,-33.95361,Eucalyptus microcorys   S85 K95 OP3 5YY
150.990959,-33.955291,Lophostemon confertus   BO7 1CC Q22 DWV
151.002295,-33.953616,Casuarina glauca   K8Y WJZ 8WV PN4
150.990793,-33.955267,Lophostemon confertus   D18 9GU 8JA DHZ
151.002302,-33.953615,Casuarina glauca   F1D N61 AEV OHN
151.002308,-33.953614,Casuarina glauca   UCR 66J D78 QQX
150.990683,-33.95525,Lophostemon confertus   QN4 QR1 MTS TD4
151.002332,-33.953616,Casuarina cunninghamiana   5K5 T4T NXH 73V
151.002341,-33.953617,Casuarina glauca   MOK 5AT 5UC PN7
150.990398,-33.955224,Lophostemon confertus   OVO C8P EB8 MEW
151.002351,-33.953616,Casuarina glauca   UU1 XUP 2KS 1KR
151.002359,-33.953617,Casuarina glauca   TQ6 3AS BOO THV
150.990293,-33.955207,Lophostemon confertus   UQZ CBV EU6 MOA
151.002376,-33.953616,Casuarina glauca   AXB 75U YFA SN6
151.002392,-33.953614,Casuarina glauca   KE3 4AD HWZ W5K
150.990039,-33.9553,Lophostemon confertus   W3T XT1 AM5 ACY
151.002413,-33.953606,Eucalyptus microcorys   O3R MJ9 QUA NOY
150.990026,-33.955366,Lophostemon confertus   X13 XE1 Y2A 74T
151.002443,-33.953611,Casuarina glauca   VWU TEG UGF KT6
150.99001,-33.955441,Lophostemon confertus   7GA 7ZF UBX J1J
151.00248,-33.953607,Casuarina glauca   GD3 7NP M77 7T3
151.002506,-33.953601,Casuarina glauca   42V 6BJ 7AW EME
151.00253,-33.953597,Casuarina glauca   9WF RBN TRW EC5
150.989966,-33.955633,Lophostemon confertus   6MT XD3 UTW OJM
151.002554,-33.953593,Casuarina glauca   42E NMJ 41P 1EN
150.989933,-33.955794,Lophostemon confertus   EDM SCW HQ1 FJ5
150.98991,-33.955972,Lophostemon confertus   FJ4 3M4 ASH RKN
150.989875,-33.956096,Lophostemon confertus   378 HDF S63 1FT
151.002618,-33.95359,Casuarina glauca   9UE G61 DKJ SJW
151.002634,-33.95359,Casuarina glauca   BQE 8ZQ NZH FKO
151.002648,-33.953588,Casuarina glauca   KHW T64 UKT TFZ
151.002662,-33.953587,Casuarina glauca   CXU AHJ Q3E 6Z6
150.989854,-33.956277,Lophostemon confertus   HH9 HKZ FS8 FNS
150.989801,-33.956488,Lophostemon confertus   DRM J4E XOT RV3
150.990012,-33.95668,Sapium sebiferum   QTP 4UP OR9 2JF
150.990114,-33.956617,Acer buergerianum   3ZZ V2D Y5B RZZ
150.989726,-33.956297,Lophostemon confertus   CAQ XBJ H48 EQ5
150.989761,-33.956133,Lophostemon confertus   XJ4 M3N YDS 4JV
150.989856,-33.955656,Lophostemon confertus   POS FGG NFN T5R
150.98991,-33.955369,Lophostemon confertus   BV7 CDF F55 B2U
151.002708,-33.953583,Casuarina glauca   W5P 6BH DNT C82
151.002707,-33.953578,Casuarina glauca   O29 25Q 66E XXR
151.002726,-33.953582,Casuarina glauca   KQT S34 U3F NCQ
151.002725,-33.953572,Casuarina glauca   JKA DKC VYY CY2
150.989644,-33.955123,Lophostemon confertus   KEK 4YQ 7K4 C1T
151.002749,-33.953581,Casuarina glauca   O82 ED1 JOY NKK
151.002755,-33.953568,Casuarina glauca   O9O G9F 3Y2 AHD
151.002773,-33.953578,Casuarina glauca   Z88 K19 547 O1Z
151.002777,-33.953564,Casuarina glauca   SBR C9H 8K8 53G
151.002792,-33.953577,Casuarina glauca   EZ6 K7U 5B8 F15
150.98926,-33.955069,Lophostemon confertus   QYU 7OX KH8 SYX
151.002799,-33.953564,Casuarina glauca   78T UH1 7DQ ZXN
150.989093,-33.955055,Lophostemon confertus   CNN Q59 YX5 SRC
151.002808,-33.953576,Casuarina glauca   FQA OSH VAN 3VH
151.002823,-33.953576,Casuarina glauca   6HA CMH 249 VPP
150.989014,-33.955041,Callistemon viminalis   94D 6ZS UPG UPT
151.002839,-33.953575,Casuarina glauca   T1P XMK 5NB BSV
151.002841,-33.953563,Casuarina glauca   J77 X9E DC4 VC3
150.988964,-33.955034,Callistemon viminalis   WO7 RXZ V76 2M5
151.001432,-33.953497,Cinnamomum camphora   PQW AD5 SR8 PRU
151.001417,-33.953507,Ligustrum lucidum   SBO YJV 4GP ONC
151.001418,-33.953501,Hibiscus rosa sinensis   PXS G2X 46X R6R
151.001387,-33.953491,Ligustrum lucidum   4E1 F4Z W7G 527
151.00136,-33.953496,Hibiscus rosa sinensis   6JD SP2 S4D AMO
151.001344,-33.953487,Pittosporum undulatum   UJX 24N V78 UO7
150.98857,-33.956497,Syzygium sp.   QE1 H83 ETA PVD
151.001344,-33.953494,Ligustrum lucidum   KUR HAU U5H 4ZU
151.001321,-33.953488,Nerium oleander   4U6 ETM 7BA DX9
150.988586,-33.956083,Callistemon viminalis   18P JJS U3P DJ6
150.988409,-33.955994,Callistemon viminalis   RZ5 OR4 NZ1 JHN
150.98834,-33.955956,Callistemon viminalis   464 BAM WG6 WZQ
150.988304,-33.95604,Eucalyptus sp.   F2D 3HX K5F UUQ
150.988097,-33.955883,Callistemon viminalis   PB8 19W A3H 483
150.988219,-33.955873,Callistemon viminalis   A1P FCN CMJ 4QV
150.988142,-33.955769,Callistemon viminalis   U3Y 49P U8O YFB
151.004329,-33.953748,Allocasuarina torulosa   8NA XB7 CNG EJC
150.987997,-33.955658,Callistemon viminalis   UHN 6T1 A7E 5HM
151.004221,-33.953755,Allocasuarina torulosa   DUR EPM BXC A2S
151.004116,-33.953763,Casuarina glauca   D3A Q79 V1J AZY
151.004075,-33.953767,Casuarina glauca   KMF DMN 4V8 5HE
151.004065,-33.953775,Casuarina glauca   9GA Z9V 69B VHK
151.004052,-33.953776,Casuarina glauca   5A5 NSA WTX SV3
151.004056,-33.953765,Casuarina glauca   77F 9W4 CR4 A29
150.987922,-33.955746,Callistemon viminalis   QS8 ONT HRM 2SR
150.987768,-33.955716,Callistemon viminalis   QQ2 CWE S6K E54
150.987628,-33.955684,Eucalyptus sp.   KNZ 7M1 9YP CO9
150.987418,-33.955654,Syzygium sp.   RFR NV6 PGN 4J2
150.987255,-33.955645,Callistemon viminalis   CUJ ABN D2W UJ5
150.988855,-33.955985,Callistemon viminalis   NFN GGR ERH K7E
150.988956,-33.956067,Callistemon viminalis   71Z 7TW 9XT TS9
151.002849,-33.95354,Casuarina glauca   7RD V9O 9HJ 7Z8
151.002868,-33.953539,Casuarina glauca   4VD RKY 8W3 4GV
151.002885,-33.953538,Casuarina glauca   3M9 PGM YW2 OXQ
151.002909,-33.953535,Casuarina glauca   5PJ B9N QMA 6C9
151.002902,-33.953515,Casuarina glauca   GBB CWJ ZOC YQW
151.002932,-33.953534,Casuarina glauca   J6F PK9 GK6 62O
151.002949,-33.953533,Casuarina glauca   E6Q A6G RKC SMP
151.002967,-33.953533,Casuarina glauca   S87 BK6 PMG DS8
151.002981,-33.953532,Casuarina glauca   VAY Q69 H43 KM1
151.002995,-33.95353,Casuarina glauca   D4G 4QP DAR KB3
151.003008,-33.953528,Casuarina glauca   DFK ZCZ Z1J Z2Z
151.003023,-33.953527,Casuarina glauca   7E7 3G6 666 EGN
151.003036,-33.953524,Casuarina glauca   31G 1HH 2YP 7ST
151.00305,-33.953522,Casuarina glauca   S8A UQK T78 CCF
151.003061,-33.953521,Callistemon viminalis   3V6 44S UZD 6UD
151.003073,-33.95352,Callistemon viminalis   COQ D6Q OJ7 T1B
150.990182,-33.956572,Syzygium sp.   JC4 YB9 AT6 NMT
151.003062,-33.95349,Callistemon viminalis   6ZY ZD7 WGJ FRA
151.003086,-33.953519,Casuarina glauca   1ER GDC 3QW 4D8
151.003099,-33.953517,Casuarina glauca   QRE 5W8 VO6 GWT
150.987653,-33.956632,Platanus x hybrida   VZH E4D HQ1 6UT
151.003112,-33.953514,Casuarina glauca   P2Q NJA GGQ TQR
150.987751,-33.956745,Lophostemon confertus   VDC 836 JH2 3AR
150.987976,-33.957013,Callistemon viminalis   MRW VC9 7N7 C82
150.990373,-33.956443,Syzygium sp.   SYE HCT SAK SHN
150.990699,-33.956236,Syzygium sp.   UEK 451 RKE STB
150.988126,-33.957207,Lophostemon confertus   OKP 7RX E6H 1DF
150.990812,-33.956166,Syzygium sp.   MK8 Z6P KB3 B3O
150.990937,-33.95609,Syzygium sp.   C9J 7X7 HXX EYK
151.00312,-33.953514,Casuarina glauca   J2X 9Y7 OB7 E6Z
150.988327,-33.957437,Lophostemon confertus   SVY NY1 P4J PE4
150.98841,-33.957536,Lophostemon confertus   S35 T67 UD5 UVD
151.003119,-33.953485,Casuarina glauca   963 TVH S5Q 78J
150.988482,-33.957469,Eucalyptus sp.   MWB 6HR 2J6 8FO
151.003129,-33.953513,Casuarina glauca   6QX BN6 KGY H4U
151.003136,-33.953512,Casuarina glauca   ZMX GS9 B94 RV2
150.988527,-33.957537,Jacaranda mimosifolia   T7W HRM RV1 G1X
151.003144,-33.953512,Casuarina glauca   KDE TDX PED FFN
150.98859,-33.95757,Jacaranda mimosifolia   6M4 MXC 684 54O
151.003153,-33.95351,Casuarina glauca   1DW 73W JV2 BYN
150.988507,-33.957695,Lophostemon confertus   XEF 94G FJ5 392
150.988846,-33.957629,Unident / deciduous / Exotic   WEO GA2 PYP H55
150.988594,-33.957626,Lophostemon confertus   EP1 V2X AWN B9X
151.003165,-33.953508,Casuarina glauca   9BT 1HP TN7 QTC
151.003174,-33.953508,Casuarina glauca   889 QPK 7CW P8P
151.003181,-33.953507,Casuarina glauca   WOY TWJ D4O 9A7
150.989182,-33.957336,Syzygium sp.   AEY G8K ANU CM4
151.00319,-33.953506,Casuarina glauca   PWW 2KE FEK Q5T
150.989315,-33.957223,Syzygium sp.   QPD UM5 MCO NZG
150.989544,-33.957046,Tristaniopsis laurina   BBF NVN 8V8 32Z
151.003204,-33.953504,Casuarina glauca   6N9 1WQ ZHS HHB
151.003203,-33.953464,Casuarina glauca   G8U BP4 7DZ YH8
150.987517,-33.957919,Syzygium paniculatum   CJ2 1N3 GR3 793
151.003216,-33.953503,Casuarina glauca   O42 51C JOF P3C
150.987383,-33.957759,Callistemon viminalis   BXN SR2 NDK UNF
151.003226,-33.953501,Casuarina glauca   TWS RUF 98Q BJB
151.003237,-33.9535,Casuarina glauca   UEK PKS KB8 OPZ
151.003248,-33.953498,Casuarina glauca   MY2 1TQ 6EJ 8HC
151.00323,-33.953491,Casuarina glauca   9RK 8SC F1C BRV
150.987322,-33.957673,Callistemon viminalis   3W2 E3C 8FP F22
151.003265,-33.953496,Casuarina glauca   QZ3 GGG 3EB K27
151.003261,-33.953454,Casuarina glauca   GSZ QVK Z3G NK5
151.003304,-33.953488,Nerium oleander   QVB DED DBR 8FH
150.987114,-33.957441,Syzygium paniculatum   R4X 89Z 6SF M66
151.003338,-33.953484,Nerium oleander   O5C 7DK 6EU ZFG
150.986855,-33.95726,Prunus sp.   38X KVT YNZ HEH
151.003332,-33.95347,Casuarina glauca   YUC NNE VJR OA8
151.003365,-33.953478,Casuarina glauca   DFV X3E XV3 71S
151.003363,-33.953459,Casuarina glauca   O3Q 32Z CWA 5GG
150.986652,-33.956863,Magnolia grandiflora   Z17 7DG XWK M9O
150.986609,-33.956814,Magnolia grandiflora   JWY JDE Z37 K3M
151.003395,-33.953474,Casuarina glauca   GA1 VBG Q7C B4F
150.986543,-33.956731,Magnolia grandiflora   XHV 6QE YHG XPR
151.003418,-33.953473,Casuarina glauca   67U R8W BJD VU3
151.003448,-33.953463,Nerium oleander   MT2 BFU 6B6 WRE
151.003597,-33.953441,Nerium oleander   SFV X6P 4KP U1T
151.003479,-33.953457,Casuarina glauca   KW9 BF5 BXO 1FF
151.003511,-33.953451,Casuarina glauca   18S GMO VGT HXX
151.003564,-33.953441,Casuarina glauca   RXZ R1E SX8 QTO
151.003625,-33.953407,Callistemon viminalis   J8R BQ6 B4D DF1
151.003628,-33.953436,Casuarina glauca   HBA RN2 BGA TD5
151.003653,-33.953435,Casuarina glauca   Z82 XH2 VP8 RAO
151.003684,-33.953429,Callistemon viminalis   WZC 8KJ BQS 5OO
151.00368,-33.953401,Callistemon viminalis   CU3 78Y B8M 6CB
151.003712,-33.953418,Jacaranda mimosifolia   71O 6N3 E6U RFV
151.003745,-33.953424,Callistemon salignus   76E 1C6 OGO T7J
151.003769,-33.953409,Jacaranda mimosifolia   T35 RO1 F2O 43N
151.003792,-33.95342,Callistemon viminalis   T36 QVB 7R2 WKE
151.003794,-33.953396,Callistemon viminalis   K6D AOV FYR FNV
151.003837,-33.953408,Casuarina glauca   ASE JC9 ARV ECG
151.003861,-33.953408,Casuarina glauca   7MQ M8U 4TC KHS
151.003884,-33.953405,Casuarina glauca   ZAD P3M F74 WK5
151.003913,-33.953401,Casuarina glauca   5BN BZK QC2 KUH
151.003942,-33.953401,Casuarina glauca   6BU JD9 MQ5 E9U
151.003969,-33.953399,Casuarina glauca   PUS 9D3 94B O22
151.003989,-33.953397,Casuarina glauca   GW7 W3W ZR5 T9S
151.004005,-33.953394,Casuarina glauca   TKT PPF 4FJ ZTQ
151.003999,-33.95338,Casuarina glauca   RB1 PXS Z56 ECR
151.004034,-33.953393,Casuarina glauca   VO7 U87 N2J 2Q4
151.004049,-33.953392,Casuarina glauca   WA8 5PG YGJ 2WS
151.004064,-33.95339,Casuarina glauca   O3J 1YW 59W CWP
151.004076,-33.95339,Casuarina glauca   FW7 62R 2MD 2AF
151.004047,-33.953375,Casuarina glauca   4DR OH7 TDS 9X3
151.004089,-33.953389,Casuarina glauca   MH1 UAC ANV OPF
151.004073,-33.95337,Casuarina glauca   YKS A96 EKN 4HP
151.004068,-33.953375,Casuarina glauca   ZU8 P2W T73 8CS
151.004089,-33.953374,Casuarina glauca   PN7 XAP DUF 2YR
151.0041,-33.953389,Casuarina glauca   494 PEX WAF NV7
151.004104,-33.953369,Casuarina glauca   OOX ZJ5 EWS 96J
151.004112,-33.953387,Casuarina glauca   AWR OH8 ZV9 S4K
151.004126,-33.953385,Casuarina glauca   4WN P9E KQC SWW
151.004136,-33.953384,Casuarina glauca   QYU NV3 JGM DNX
150.985651,-33.95962,Lagerstroemia indica cv.   99N 8QN ZNE W2C
150.985652,-33.959746,Lagerstroemia indica cv.   953 KGR Y4A 8OS
150.985715,-33.959492,Eucalyptus sp.   NDK T1Z NQ3 EF6
150.985677,-33.959451,Eucalyptus sp.   DOY F8B DCK P44
150.985434,-33.959349,Callistemon sp.   CPM BEQ 9S9 2DR
150.986762,-33.958607,Lophostemon confertus   U1B 588 VGT KP2
150.985274,-33.958957,Eucalyptus crebra   TK7 V9K E4Q QO9
151.004147,-33.953366,Eucalyptus tereticornis   HDE PMR 6BU A3T
150.98665,-33.958537,Lophostemon confertus   1QB AT5 H2Q 7MM
151.004149,-33.953381,Eucalyptus tereticornis   8T8 97W MHP NYG
150.986568,-33.958399,Lophostemon confertus   ZPC OBF XV9 8ZQ
151.004157,-33.953379,Eucalyptus tereticornis   VAJ ZR1 J2N XDP
150.986471,-33.958264,Lophostemon confertus   MO9 TXU M7P MUF
151.004187,-33.953375,Eucalyptus sp.   769 QTS QTF 6EQ
150.986373,-33.958168,Lophostemon confertus   4PR DU1 YFS 8XR
151.004203,-33.953351,Eucalyptus sp.   DNO P19 YNQ FRE
150.98628,-33.958073,Lophostemon confertus   OGM GSY A2J O9G
151.00423,-33.953349,Eucalyptus sp.   JSO GE8 357 R9C
150.986196,-33.957941,Lophostemon confertus   N4N PQS 5H5 QBH
151.004248,-33.953363,Eucalyptus sp.   F4B 472 SU7 GXK
151.00426,-33.953348,Eucalyptus sp.   ZCH 1HO OYC 8YE
150.986107,-33.957858,Lophostemon confertus   KDU P1X HEE 685
151.004305,-33.953359,Eucalyptus sp.   DSR S63 RPE 7PA
150.985985,-33.95774,Lophostemon confertus   BMS 678 7KW OPN
151.0044,-33.953324,Eucalyptus tereticornis   NXM UEH BO3 8U1
150.985921,-33.957653,Lophostemon confertus   DRX HA2 385 XVR
151.004422,-33.95333,Eucalyptus tereticornis   SU6 DFB O88 Z4N
150.985647,-33.957267,Lophostemon confertus   37D 3GO NFK 63N
151.00443,-33.953302,Eucalyptus tereticornis   CA9 6T6 NPG CMP
150.984837,-33.958405,Lophostemon confertus   REO MOJ 4OO PVQ
151.004486,-33.953297,Eucalyptus tereticornis   4S2 R1J OCB T2S
151.004521,-33.953296,Eucalyptus tereticornis   TK2 RPN GXQ TEB
151.004561,-33.953287,Eucalyptus tereticornis   XO8 ZWZ RQV OP3
150.985264,-33.956807,Lophostemon confertus   6YU ANY TJO 2VT
151.004572,-33.953287,Eucalyptus tereticornis   7DX 6G1 MS7 RZZ
151.00459,-33.953283,Eucalyptus tereticornis   9Y2 9YC EW7 W6Y
150.984526,-33.958026,Eucalyptus sp.   M18 1ZW GR3 2O4
151.004614,-33.95328,Eucalyptus tereticornis   2D6 GJQ UPO U2X
151.004644,-33.953279,Eucalyptus tereticornis   7Q5 7O4 XPX 2SA
150.985643,-33.957083,Callistemon viminalis   GVR MG5 WVF HR3
150.984297,-33.9581,Lophostemon confertus   8XJ VCD ZXV G1G
151.004692,-33.953268,Eucalyptus tereticornis   A4S 66A 643 9F9
150.985667,-33.957062,Callistemon viminalis   9TG 4ZB NGT XUS
151.004765,-33.953265,Eucalyptus tereticornis   XUM E8A 7VX HQQ
151.004777,-33.95326,Eucalyptus paniculata   CTM 8ZM ZT5 B4X
150.985874,-33.956857,Eleaocarpus reticulatus   Z5M YMV FJD 69X
151.004785,-33.953263,Eucalyptus tereticornis   S9S V57 V3W 75U
150.986138,-33.956701,Eleaocarpus reticulatus   5YB 9UO F28 4FS
151.004822,-33.953255,Eucalyptus tereticornis   HHT 1J1 HO2 B63
150.986246,-33.956745,Eucalyptus sideroxylon   PWK H1E MMP UXV
151.004853,-33.953251,Eucalyptus tereticornis   6CO OG7 UZM FY2
150.984118,-33.958073,Jacaranda mimosifolia   GEK N8P SFP 4R7
151.004867,-33.953254,Eucalyptus tereticornis   FSJ ARV 8TN FCC
151.004881,-33.953257,Eucalyptus tereticornis   P3O F78 MPE P6A
150.98652,-33.956486,Eucalyptus sp.   14F JZ9 VS3 5NQ
150.984051,-33.95811,Jacaranda mimosifolia   Y6O 73M CTZ GEJ
151.004899,-33.953253,Eucalyptus tereticornis   W62 3KW RPX 4B7
150.986717,-33.95648,Eucalyptus sideroxylon   Z28 S62 PEV FOQ
151.004915,-33.953246,Eucalyptus tereticornis   ZZ2 EFP VNA FJD
151.005056,-33.953232,Eucalyptus tereticornis   F4S XR1 Q6B GV4
151.005103,-33.953226,Eucalyptus tereticornis   6J6 KSB 6BO 1PA
151.005156,-33.95323,Eucalyptus tereticornis   O5O KQW K7Q B3K
151.005239,-33.953212,Eucalyptus tereticornis   9ET CMT 1QD F4A
150.983661,-33.958238,Eucalyptus sp.   HRJ DM9 5ZK OPD
150.987956,-33.956486,Eucalyptus sieberi   875 EMJ 8AN GA1
150.983581,-33.958508,Callistemon viminalis   G24 O2A PC6 KTS
150.983553,-33.958518,Casuarina cunninghamiana   HDS CHU 8AB ZM9
150.983531,-33.958523,Casuarina cunninghamiana   EMG ZYT HF9 ZRH
150.983508,-33.958524,Casuarina cunninghamiana   N18 RA8 O8K OJC
150.983313,-33.958659,Eucalyptus sp.   BQT 7CZ VO8 B6M
150.987782,-33.958547,Tristaniopsis laurina   2BM K79 G81 KPQ
150.987698,-33.95862,Tristaniopsis laurina   NS5 OXW ZEK UV6
150.987493,-33.958753,Waterhousia floribunda   GOD QYQ 8GW OVY
150.987352,-33.958832,Melaleuca styphelioides   YOH U7R 5Y7 W3Y
150.984827,-33.959069,Syzygium sp.   1JY 8EP MA9 4Q6
150.984584,-33.95935,Tristaniopsis laurina   M6V DB8 9OH 6HC
150.984616,-33.95932,Syzygium sp.   T6W 45M EQC J8P
150.985862,-33.959473,Pyrus calleryana   FHN C5X 64K T76
150.984693,-33.959217,Tristaniopsis laurina   XZW CMS FQY TN1
150.985885,-33.9597,Corymbia maculata   OBA MET EWN S6F
150.984514,-33.959448,Callistemon viminalis   AAN CVN F8P 941
150.98593,-33.959628,Eucalyptus paniculata   SS3 Y97 WSQ 5O2
150.984392,-33.959573,Tristaniopsis laurina   X5M 93Z HGZ DNR
150.986129,-33.959427,Acacia binervia   YV9 O8D O4B 1E5
150.984466,-33.959503,Callistemon viminalis   4ED 36B KEA JVM
150.986013,-33.959258,Eucalyptus nicholii   T1Q V49 FGU RQD
150.986074,-33.959138,Eucalyptus sp.   2ZQ FW5 1EP MPR
150.986282,-33.958957,Eucalyptus scoparia   NNR BWC 4YG G6W
150.986246,-33.959356,Pyrus calleryana   AKB V25 65Q B5S
150.984227,-33.95955,Eucalyptus sp.   NAH 8GJ BXA HWD
150.984402,-33.959365,Eucalyptus sp.   D8Z 891 93H 2YX
150.984477,-33.959279,Callistemon viminalis   7BG GP8 NFJ PX5
150.984546,-33.959207,Eucalyptus sp.   YTB 5B3 15O NMV
150.984603,-33.959139,Callistemon viminalis   V1W UCW F5V 71R
150.984686,-33.959028,Eucalyptus sp.   WNY 3G3 AMW CJY
150.984764,-33.958934,Eucalyptus sp.   VJD B21 C3B 3T6
150.984043,-33.959779,Eucalyptus sp.   EKU PXO DUU Y61
150.983955,-33.959864,Unident / evergreen / Exotic   SGP Q7T YYC N2O
150.983829,-33.960009,Tristaniopsis laurina   DR3 PTP 2QN BNK
150.983754,-33.960093,Eucalyptus sp.   ZCH CPV DY3 VRK
150.98365,-33.960221,Tristaniopsis laurina   EWT TN8 BTS GCR
150.983439,-33.960468,Lophostemon confertus   JCE R15 B4V KGO
150.983399,-33.96055,Eucalyptus sp.   ASS ET7 6JK H6W
150.983311,-33.960678,Eucalyptus sp.   OJ1 5QC 2GE 6HK
150.983296,-33.960716,Jacaranda mimosifolia   4HP UBB V4R E63
150.98324,-33.960808,Eucalyptus sp.   GGJ BY8 D44 VYD
150.983209,-33.960854,Eucalyptus sp.   F8Z A91 QJ1 J16
150.985915,-33.959725,Eucalyptus microcorys   PRX B8P ERP AXA
150.985931,-33.959756,Nerium oleander   7PM 9UE RJC PO6
150.983431,-33.960743,Unident / evergreen / Exotic   8G4 CKM 37E T7Q
150.985874,-33.959881,Tristaniopsis laurina   7K6 NY7 81T 2CY
150.983362,-33.960872,Eucalyptus sp.   8PY C55 8NK 98N
150.983336,-33.960914,Eucalyptus sp.   JWS XEC KEE A4Q
150.985546,-33.960116,Jacaranda mimosifolia   1CD KFY G8D 6CW
150.985368,-33.960337,Jacaranda mimosifolia   W37 MFX N21 4HO
150.985194,-33.960511,Eucalyptus sideroxylon   UZD 5SF XZ8 QRE
150.983183,-33.961195,Unident / evergreen / Exotic   4VP PJB 2FE H8O
150.984871,-33.961053,Eucalyptus sp.   7QB ZSV ERD H1Y
150.983151,-33.961249,Unident / evergreen / Exotic   BR3 621 S5C SG4
150.984676,-33.961252,Eucalyptus sp.   66S QC9 ECX 9NO
150.983088,-33.961377,Prunus sp.   ROO SZH SEC SBS
150.983029,-33.961472,Unident / evergreen / Exotic   COP 5OJ FR3 FF4
150.984385,-33.961381,Syzygium paniculatum   YAF 7TH ETD QUM
150.98449,-33.961254,Syzygium paniculatum   82M Y3M A42 ODR
150.98469,-33.960996,Syzygium paniculatum   CVK 496 U8E FUV
150.984781,-33.960881,Syzygium paniculatum   XEF P35 616 571
150.984955,-33.960646,Acer negundo   CSX 6EX 79S A3Q
150.985177,-33.960363,Acer negundo   F76 BON 9EK J43
150.985198,-33.960344,Unident / evergreen / Exotic   JMN ZM6 OV4 RFH
150.985319,-33.960181,Syzygium paniculatum   NF4 Q1B RXS N3Y
150.981985,-33.960898,Eucalyptus sp.   FU9 7DG 2XG ZOO
150.982058,-33.96058,Eucalyptus sp.   Z7J WNP D3D EOA
150.982365,-33.960066,Eucalyptus sp.   9JJ CTH WEF UHQ
150.987579,-33.958904,Eucalyptus sp.   29X VUK 271 M4J
150.987675,-33.958852,Eucalyptus sp.   QNJ 7UH F79 X5Z
150.987715,-33.958825,Casuarina cunninghamiana   DB7 D38 PYX 93W
150.987777,-33.958771,Eucalyptus sp.   OW8 5NX JV1 D6O
150.987829,-33.958719,Eucalyptus tereticornis   H4H 7YS 11B SPD
150.987928,-33.958647,Casuarina cunninghamiana   Y5X YJA NFD 8RQ
150.9841,-33.964216,Angophora floribunda   HP7 329 MSA GZQ
150.987794,-33.958735,Acacia sp. (Native & Evergreen)   2F5 KW6 NS1 F9Z
150.984088,-33.964207,Eucalyptus punctata   V5F HYC QR9 VD1
150.9841,-33.964273,Acacia decurrens   WAD QCH R3U MUK
150.98411,-33.964405,Acacia decurrens   TTA GAW EE7 PG9
150.98419,-33.962465,Magnolia grandiflora 'Little Gem'   FM3 VK1 MDH 42K
150.984263,-33.962516,Magnolia grandiflora 'Little Gem'   AKV FX8 KWZ Y4E
150.984346,-33.962567,Magnolia grandiflora 'Little Gem'   X6B CHF 4KC YXD
150.984796,-33.962892,Callistemon citrinus   EHA XH5 286 EM5
150.98493,-33.962977,Unident / Shrub / Exotic   DJ4 EM2 Z2H B5E
150.984997,-33.963035,Tristaniopsis laurina   RJK Z1O 748 Y3V
150.987955,-33.958608,Angophora floribunda   FNN TCG FB1 RSK
150.985553,-33.963419,Angophora floribunda   1MQ GEC JQX ANE
150.987938,-33.958586,Angophora floribunda   NA1 Q8S JZP O58
150.988003,-33.95854,Angophora floribunda   AJA RQE PXF DJJ
150.985594,-33.963447,Acacia sp. (Native & Evergreen)   KEQ PVA BAC 6UV
150.982389,-33.959768,Callistemon viminalis   PT5 6TT HBV TUB
150.988039,-33.95851,Angophora floribunda   EGY QD4 VU3 JSV
150.98807,-33.9585,Angophora floribunda   O7M P7Y ORM N7K
150.988056,-33.958482,Angophora floribunda   UJF Q4D ZJ2 QHK
150.982843,-33.959296,Quercus robur   956 YPM 6ZJ ST2
150.9881,-33.958487,Angophora floribunda   A2G P4F FM6 G5M
150.988079,-33.958469,Angophora floribunda   52S 4SO JSJ PES
150.986124,-33.963651,Angophora floribunda   KEO BJG GN4 FZN
150.986001,-33.963556,Eleaocarpus reticulatus   CXH HYZ 39D 8EB
150.985872,-33.963475,Tristaniopsis laurina   KZ3 11F FUV 178
150.985825,-33.963439,Tristaniopsis laurina   FO4 8VX O26 3NH
150.984206,-33.956764,Callistemon viminalis   K2U FJB TER AJV
150.985726,-33.963368,Eleaocarpus reticulatus   X41 1JR FNW YKJ
150.984305,-33.95658,Callistemon sp.   WRP 6CB USO BXP
150.98564,-33.963298,Eleaocarpus reticulatus   UPA PJQ ZS5 DF7
150.985577,-33.963259,Eleaocarpus reticulatus   ESE ZVZ 22C 4Y9
150.985518,-33.963219,Eleaocarpus reticulatus   ZEO HS7 DDB CMA
150.985472,-33.963184,Eleaocarpus reticulatus   X4S GJ6 OQT ND5
150.982706,-33.959257,Callistemon viminalis   EKC PB4 7X7 U4M
150.982696,-33.959277,Callistemon viminalis   JSR OF8 ZPM ZOQ
150.988054,-33.958499,Angophora floribunda   K22 7ZC RN6 E7V
150.988099,-33.958444,Angophora floribunda   W64 FV2 Q4U A7D
150.988124,-33.958467,Angophora floribunda   P92 1BA 5WE RAA
150.988148,-33.958427,Angophora floribunda   SXD WMF 1NN GVR
150.988168,-33.958413,Angophora floribunda   DMV 611 P2W NVW
150.988146,-33.958451,Corymbia maculata   GO5 FTG 8HM G2B
150.988191,-33.958427,Angophora floribunda   XMO SJW ESK VZP
150.981829,-33.96079,Melia azadarach   ANV 6FA U5A R4Y
150.988136,-33.958444,Corymbia maculata   W4J PAK HCB EJ7
150.988203,-33.958421,Angophora floribunda   8MG G7K 8TF O7X
150.988196,-33.958395,Angophora floribunda   KRD 97Y ECW 5AH
150.988228,-33.958398,Angophora floribunda   QTK Y29 A14 HNU
150.988215,-33.95838,Angophora floribunda   W6E MNV 6G9 HUQ
150.988229,-33.958368,Angophora floribunda   ONM 73P QQ2 J8C
150.981824,-33.960828,Casuarina glauca   1RB P9C 3AB RSW
150.988249,-33.958379,Angophora floribunda   SU4 9YT RJY O39
150.985441,-33.962389,Lagerstroemia indica cv.   B91 YZ6 5SZ R7C
150.988246,-33.958347,Angophora floribunda   ORA OS1 59M GQX
150.985535,-33.962259,Lagerstroemia indica cv.   ND5 XSV H5X SF3
150.985608,-33.962179,Lagerstroemia indica cv.   5F9 AFH 4P6 ZZP
150.981815,-33.960852,Casuarina glauca   GYU FFH B22 O3F
150.988264,-33.958361,Angophora floribunda   SM3 EFY W22 N6G
150.985762,-33.961964,Lagerstroemia indica cv.   WKH WHT SBF 9BJ
150.988272,-33.958345,Angophora floribunda   32P FMP X3J C37
150.985857,-33.96185,Lagerstroemia indica cv.   EZQ E65 ZFR BYN
150.988265,-33.958325,Angophora floribunda   ZO2 AAG 6DR FN3
150.988292,-33.95833,Angophora floribunda   GFU JDZ 684 1Z2
150.988285,-33.958312,Angophora floribunda   5S8 84C 7R5 NM5
150.986037,-33.961606,Lagerstroemia indica cv.   2UW TK6 3D9 MMP
150.988311,-33.958314,Angophora floribunda   383 VQV W5T W4A
150.988301,-33.958303,Angophora floribunda   JU9 6D5 HUA MO6
150.988325,-33.958301,Angophora floribunda   ASH M6D KYP VWW
150.986058,-33.961579,Lagerstroemia indica cv.   13X PBG 7TH RJO
150.986136,-33.96148,Lagerstroemia indica cv.   878 7YS A2J DV4
150.9883,-33.958288,Angophora floribunda   5CE 4CM B7G 9PE
150.986199,-33.961397,Lagerstroemia indica cv.   8WH V42 NC5 1FA
150.988315,-33.958287,Angophora floribunda   BR5 J57 OAW EJ2
150.988339,-33.95829,Angophora floribunda   4ZV X8U 4OJ T19
150.981776,-33.960963,Eucalyptus nicholii   5M9 ENR RP7 7PD
150.988347,-33.958283,Angophora floribunda   FVE EYF S2Q C5B
150.988327,-33.958271,Angophora floribunda   7DG GN8 Z9Q Z4H
150.981765,-33.960991,Casuarina glauca   FJ2 5P7 MOB BGS
150.988334,-33.958268,Angophora floribunda   RFK 4NR NS4 9B8
150.986538,-33.961181,Jacaranda mimosifolia   6JY TB8 FJA 2ZE
150.986512,-33.961213,Jacaranda mimosifolia   PP9 F36 HJJ 381
150.988358,-33.958269,Angophora floribunda   THP SPR AC3 ANY
150.98176,-33.96101,Eucalyptus sp.   UVF DOE 8T6 K3K
150.98836,-33.958248,Angophora floribunda   2DX VT3 NR4 QJC
150.986341,-33.961435,Jacaranda mimosifolia   UFT Y7B DXJ Q3G
150.981724,-33.961134,Casuarina glauca   NDJ 3UN M2D Q82
150.9884005,-33.95821476,Angophora floribunda   EE4 MC5 7TY 5EE
150.98629,-33.961489,Jacaranda mimosifolia   SET NS4 95A XR7
150.98625,-33.96152,Jacaranda mimosifolia   8DZ T5P 94T 2CM
150.981717,-33.961155,Eucalyptus sp.   7YG R4R PG4 JHE
150.986191,-33.961596,Jacaranda mimosifolia   ETQ 5BR 7HG CYW
150.986176,-33.961676,Magnolia grandiflora 'Little Gem'   2FR G2C BCT JQU
150.9884468,-33.95818194,Eucalyptus eugenioides   FKJ JEM CXX H2G
150.988474,-33.958153,Angophora floribunda   XDQ H4X 1GY Q1P
150.981729,-33.961111,Melia azadarach   KRU CP2 WQ8 2F5
150.985751,-33.962229,Jacaranda mimosifolia   1CM FT8 8A6 MRS
150.988504,-33.958114,Angophora floribunda   JN4 945 OR5 JC3
150.985569,-33.962471,Melaleuca quinquenervia   BAD 319 7BF NQ6
150.981726,-33.961174,Melia azadarach   S8D 4H6 WQV BNV
150.985531,-33.962508,Melaleuca quinquenervia   7BJ 9QM MU7 A5K
150.981714,-33.961191,Melia azadarach   K8G 759 57G DN1
150.985451,-33.962609,Callistemon viminalis   SMP AD9 OTS VFY
150.985441,-33.962622,Callistemon viminalis   XKG 52N QQ5 Y5Z
150.981735,-33.961192,Casuarina glauca   FTK FSG SY8 JVF
150.988661,-33.957971,Eucalyptus sp.   XDW OJH Q13 3JC
150.9887,-33.957953,Angophora floribunda   J3W X6N S9C SO2
150.981699,-33.961266,Eucalyptus sp.   4AT VBU 7ZH HOJ
150.98873,-33.957921,Angophora floribunda   8PZ SQY 6KX YDQ
150.985434,-33.962632,Acacia linifolia   TU2 WEK 2CN AQB
150.988758,-33.957898,Angophora floribunda   J9D MH9 6N9 QCA
150.981714,-33.961264,Unident / evergreen / Native   8O1 C3H SNA OTS
150.988786,-33.957884,Angophora floribunda   61R WMR YXH NXO
150.981688,-33.961324,Eucalyptus sp.   9G6 2OQ ZUG BQT
150.988818,-33.957836,Eucalyptus sideroxylon   66C GM5 89S V7Z
150.985422,-33.962646,Eucalyptus sp.   23F 7MA TZW KX9
150.98171,-33.961315,Casuarina glauca   EGE 1YR DMD KDV
150.988857,-33.957824,Angophora floribunda   NMH VET 1R3 7M1
150.98525,-33.962859,Eucalyptus robusta   TXN 4Z8 XRK 99U
150.988875,-33.957787,Corymbia maculata   V6S 8P1 K2R 7E4
150.981617,-33.961317,Casuarina glauca   H9A FZB QK2 25R
150.988926,-33.957744,Angophora floribunda   4AP 6ZX 81W TCA
150.981618,-33.961343,Casuarina glauca   CKV XDP CYA UBB
150.981621,-33.96136,Eucalyptus sp.   CTH RK5 B56 18G
150.98161,-33.961425,Casuarina glauca   6S4 CDU BWG ME9
150.9889758,-33.95769194,Eucalyptus eugenioides   WWP UWP WT8 VTU
150.988973,-33.957718,Angophora floribunda   17J B48 H5N AVK
150.989065,-33.95765467,Angophora floribunda   UGS VAU 7X3 HQM
150.9890737,-33.95764522,Angophora floribunda   6UE HUO 8R5 HXN
150.9891012,-33.95761352,Angophora floribunda   NAZ MF7 COR W46
150.989118,-33.957584,Angophora floribunda   H9Z MW6 1DM 762
150.989103,-33.95757,Angophora floribunda   GCO 9R6 O2Z MPT
150.989162,-33.957568,Angophora floribunda   6YB QW5 H3O Q6B
150.989181,-33.95756,Angophora floribunda   B6B 739 OTN TSQ
150.9892,-33.957545,Angophora floribunda   RUP 16E HMN 43W
150.989187,-33.957507,Angophora floribunda   JBP EHD EU7 PRE
150.989219,-33.957527,Angophora floribunda   KRZ TZZ W66 99Q
150.989247,-33.957521,Angophora floribunda   OVU DKS HHM 6N5
150.989199,-33.957488,Angophora floribunda   JBN X6B E8C 1RM
150.989255,-33.957493,Angophora floribunda   29O G3Y F72 RPJ
150.989244,-33.957464,Angophora floribunda   ET6 M18 CFM 7U6
150.989286,-33.957474,Angophora floribunda   9MW AD6 AM1 2GJ
150.989272,-33.957477,Angophora floribunda   OS2 4JU C3H JM8
150.989251,-33.957448,Angophora floribunda   91F 9WN 6TH R3B
150.989312,-33.957457,Angophora floribunda   FEM ZAY 83Y UBP
150.989325,-33.957451,Angophora floribunda   T7G R7K QEW CB1
150.989349,-33.957414,Angophora floribunda   B8K TBU WA9 DYC
150.989359,-33.957408,Angophora floribunda   2AX 83E NRE OGK
150.986615,-33.963417,Eucalyptus sp.   D7M XDO JRE CAQ
150.986738,-33.963057,Eucalyptus sp.   SBG TZ5 N24 GEJ
150.986923,-33.962824,Callistemon viminalis   B16 OHW 2YA EOQ
150.987094,-33.962606,Eucalyptus scoparia   TT6 PQD GGG 7SA
150.98721,-33.962451,Melaleuca linariifolia   3TR S3W MTD 4A3
150.987323,-33.962306,Melaleuca linariifolia   K4P CWG 685 2JY
150.987481,-33.96209,Eucalyptus sp.   HQG OUA RQQ EJV
150.988765,-33.962427,Acacia sp. (Native & Evergreen)   OBN V3A XER UDC
150.988864,-33.962458,Acacia sp. (Native & Evergreen)   1C1 3OA KZX 83M
150.988943,-33.962485,Acacia sp. (Native & Evergreen)   8FZ JRU 9P8 X4A
150.98377,-33.96027,Callistemon viminalis   37D 4VN BGE M2X
